<?xml version="1.0" encoding="UTF-8"?>
<response>
<header>
<resultCode>00</resultCode>
<resultMsg>NORMAL SERVICE.</resultMsg>
</header>
<body>
<items>
<item>
<buildAddress>부산광역시 사하구 낙동대로398번길 12 사하구청의회1층 의원사무실입구</buildAddress>
<buildPlace>사하구청의회1층 의원사무실입구</buildPlace>
<clerkTel>051-220-4871</clerkTel>
<manager>김은아</manager>
<managerTel>0512204871</managerTel>
<mfg>(주)나눔테크</mfg>
<model>NT-381.C</model>
<org>사하구청의회</org>
<rnum>1</rnum>
<wgs84Lat>35.1045007076</wgs84Lat>
<wgs84Lon>128.9747894929</wgs84Lon>
<zipcode1>493</zipcode1>
<zipcode2>28</zipcode2>
</item>
<item>
<buildAddress>전라북도 남원시 주천면 정령치로 255</buildAddress>
<buildPlace>지리산북부사무소 1층 복도</buildPlace>
<clerkTel>063-630-8943</clerkTel>
<manager>김재용</manager>
<managerTel>010-***-****</managerTel>
<mfg>씨유메디칼</mfg>
<model>CU-SP1</model>
<org>국립공원관리공단지리산국립공원북부사무소</org>
<rnum>2</rnum>
<wgs84Lat>35.3896423449</wgs84Lat>
<wgs84Lon>127.4614630454</wgs84Lon>
<zipcode1>558</zipcode1>
<zipcode2>02</zipcode2>
</item>
<item>
<buildAddress>서울특별시 중구 소공로 106 신세계 조선호텔</buildAddress>
<buildPlace>보안실</buildPlace>
<clerkTel>023170019</clerkTel>
<manager>김현조</manager>
<managerTel>02-317-0019</managerTel>
<mfg>니혼코텐코리아</mfg>
<model>AED-2100k</model>
<org>조선호텔</org>
<rnum>3</rnum>
<wgs84Lat>37.5644836818</wgs84Lat>
<wgs84Lon>126.9801832153</wgs84Lon>
<zipcode1>045</zipcode1>
<zipcode2>33</zipcode2>
</item>
<item>
<buildAddress>서울특별시 중구 소공로 106 신세계 조선호텔</buildAddress>
<buildPlace>휘트니클럽</buildPlace>
<clerkTel>023170019</clerkTel>
<manager>김현조</manager>
<managerTel>02-317-0019</managerTel>
<mfg>니혼코텐코리아</mfg>
<model>AED-2100k</model>
<org>조선호텔</org>
<rnum>4</rnum>
<wgs84Lat>37.5644836818</wgs84Lat>
<wgs84Lon>126.9801832153</wgs84Lon>
<zipcode1>045</zipcode1>
<zipcode2>33</zipcode2>
</item>
<item>
<buildAddress>울산광역시 남구 대암로 82 신정현대홈타운2단지아파트</buildAddress>
<buildPlace>관리동 1층 관리사무실 내 </buildPlace>
<clerkTel>052-227-7061</clerkTel>
<manager>김병훈</manager>
<managerTel>010-***-****</managerTel>
<mfg>(주)나눔테크</mfg>
<model>Heartsaver-A</model>
<org>신정현대홈타운2단지</org>
<rnum>5</rnum>
<wgs84Lat>35.5289900574</wgs84Lat>
<wgs84Lon>129.3233183281</wgs84Lon>
<zipcode1>447</zipcode1>
<zipcode2>33</zipcode2>
</item>
<item>
<buildAddress>대구광역시 수성구 야구전설로 1</buildAddress>
<buildPlace>4층 스윗박스 6호실 앞</buildPlace>
<clerkTel>053-780-3362</clerkTel>
<manager>김은수</manager>
<managerTel>053-780-3362</managerTel>
<mfg>니혼코덴</mfg>
<model>ADE-2100K</model>
<org>(주)삼성라이온즈</org>
<rnum>6</rnum>
<wgs84Lat>35.8411303719</wgs84Lat>
<wgs84Lon>128.6812359601</wgs84Lon>
<zipcode1>422</zipcode1>
<zipcode2>50</zipcode2>
</item>
<item>
<buildAddress>충청북도 단양군 적성면 기동2길 32-37</buildAddress>
<buildPlace>중앙출입구</buildPlace>
<clerkTel>043-423-5401</clerkTel>
<manager>최윤혁</manager>
<managerTel>010-***-****</managerTel>
<mfg>(주)메디아나</mfg>
<model>A15-94</model>
<org>단양(부산방향)휴게소</org>
<rnum>7</rnum>
<wgs84Lat>36.9953526845</wgs84Lat>
<wgs84Lon>128.2876116813</wgs84Lon>
<zipcode1>270</zipcode1>
<zipcode2>00</zipcode2>
</item>
<item>
<buildAddress>서울특별시 영등포구 의사당대로 1 국회사무처</buildAddress>
<buildPlace>본관 3층 본회의장</buildPlace>
<clerkTel>02-788-2822</clerkTel>
<manager>의사(안근영)</manager>
<managerTel>010-***-****</managerTel>
<mfg>라디안</mfg>
<model>HR-501-B</model>
<org>국회사무처</org>
<rnum>8</rnum>
<wgs84Lat>37.5316289877</wgs84Lat>
<wgs84Lon>126.9141966346</wgs84Lon>
<zipcode1>072</zipcode1>
<zipcode2>33</zipcode2>
</item>
<item>
<buildAddress>경기도 안양시 만안구 안양1동 90-1</buildAddress>
<buildPlace>후문 경비 2초소</buildPlace>
<clerkTel>4662831</clerkTel>
<manager>시설과장 한규황</manager>
<managerTel>466-2831</managerTel>
<mfg>한국(주)나눔테크</mfg>
<model>Heart Pro Nt-280</model>
<org>안양삼성래미안아파트</org>
<rnum>9</rnum>
<wgs84Lat>37.4018812589</wgs84Lat>
<wgs84Lon>126.9242328626</wgs84Lon>
<zipcode1>430</zipcode1>
<zipcode2>814</zipcode2>
</item>
<item>
<buildAddress>대전광역시 서구 정림서로 162-18</buildAddress>
<buildPlace>관리동 1층</buildPlace>
<clerkTel>042-583-1188</clerkTel>
<manager>장극순</manager>
<managerTel>010-***-****</managerTel>
<mfg>(주)씨유메디칼시스템</mfg>
<model>i-padNF1200</model>
<org>강변들보람아파트</org>
<rnum>10</rnum>
<wgs84Lat>36.3005599077</wgs84Lat>
<wgs84Lon>127.3645882629</wgs84Lon>
<zipcode1>353</zipcode1>
<zipcode2>98</zipcode2>
</item>
<item>
<buildAddress>부산광역시 서구 망양로 57 구덕운동장 주경기장</buildAddress>
<buildPlace>구덕운동장 주경기장 입구</buildPlace>
<clerkTel>0516022235</clerkTel>
<manager>김원섭</manager>
<managerTel>051-602-2235</managerTel>
<mfg>씨유메디칼</mfg>
<model>NFK200</model>
<org>부산체육시설관리사업소</org>
<rnum>11</rnum>
<wgs84Lat>35.1152639316</wgs84Lat>
<wgs84Lon>129.0144575378</wgs84Lon>
<zipcode1>492</zipcode1>
<zipcode2>04</zipcode2>
</item>
<item>
<buildAddress>대전광역시 중구 안영로 68 관리사무소</buildAddress>
<buildPlace>관리동 1층 노인정 출입문 옆</buildPlace>
<clerkTel>042-587-1700</clerkTel>
<manager>노봉희</manager>
<managerTel>010-***-****</managerTel>
<mfg>(주)라디안</mfg>
<model>HR-501</model>
<org>우남스타원아파트</org>
<rnum>12</rnum>
<wgs84Lat>36.2946158793</wgs84Lat>
<wgs84Lon>127.382418122</wgs84Lon>
<zipcode1>350</zipcode1>
<zipcode2>82</zipcode2>
</item>
<item>
<buildAddress>서울특별시 영등포구 의사당대로 1 국회의사당 국회사무처</buildAddress>
<buildPlace>본관 1층 면회실</buildPlace>
<clerkTel>02-788-2822</clerkTel>
<manager>의사(안근영)</manager>
<managerTel>010-***-****</managerTel>
<mfg>라디안</mfg>
<model>HR-501-B</model>
<org>국회사무처</org>
<rnum>13</rnum>
<wgs84Lat>37.5316876225</wgs84Lat>
<wgs84Lon>126.9142927342</wgs84Lon>
<zipcode1>072</zipcode1>
<zipcode2>33</zipcode2>
</item>
<item>
<buildAddress>경상남도 산청군 생초면 새실로 455</buildAddress>
<buildPlace>환자대기실</buildPlace>
<clerkTel>055-970-7683</clerkTel>
<manager>이애심</manager>
<managerTel>010-***-****</managerTel>
<mfg>명성바이오텍</mfg>
<model>DDU-100series</model>
<org>구평보건진료소</org>
<rnum>14</rnum>
<wgs84Lat>35.5315076517</wgs84Lat>
<wgs84Lon>127.8479847084</wgs84Lon>
<zipcode1>522</zipcode1>
<zipcode2>00</zipcode2>
</item>
<item>
<buildAddress>인천광역시 연수구 아트센터대로97번길 30 (송도동, 더샵그린워크1차)</buildAddress>
<buildPlace>1605동 1층 생활문화지원실 문 앞</buildPlace>
<clerkTel>032-858-9015</clerkTel>
<manager>강수자</manager>
<managerTel>032-858-9015</managerTel>
<mfg>(주)씨유네트웍스</mfg>
<model>NF-1200</model>
<org>송도더샵그린워크1차아파트</org>
<rnum>15</rnum>
<wgs84Lat>37.3982966149</wgs84Lat>
<wgs84Lon>126.6414403901</wgs84Lon>
<zipcode1>220</zipcode1>
<zipcode2>02</zipcode2>
</item>
<item>
<buildAddress>경기도 군포시 오금로 43</buildAddress>
<buildPlace>관리동 경로당 입구</buildPlace>
<clerkTel>031-344-6566</clerkTel>
<manager>김동영</manager>
<managerTel>010-***-****</managerTel>
<mfg>(주)메디아나</mfg>
<model>Heart On A15-G4</model>
<org>율곡아파트</org>
<rnum>16</rnum>
<wgs84Lat>37.3524569645</wgs84Lat>
<wgs84Lon>126.9309609567</wgs84Lon>
<zipcode1>158</zipcode1>
<zipcode2>64</zipcode2>
</item>
<item>
<buildAddress>전라북도 익산시 선화로69길 59 관리사무소</buildAddress>
<buildPlace>관리사무소 입구</buildPlace>
<clerkTel>063-833-1609</clerkTel>
<manager>이순임</manager>
<managerTel>063-833-1609</managerTel>
<mfg>(주)나눔테크</mfg>
<model>Heart Keeper</model>
<org>부송삼성아파트</org>
<rnum>17</rnum>
<wgs84Lat>35.9586812157</wgs84Lat>
<wgs84Lon>126.9928035143</wgs84Lon>
<zipcode1>545</zipcode1>
<zipcode2>56</zipcode2>
</item>
<item>
<buildAddress>제주특별자치도 제주시 애월읍 하귀9길 45 하귀휴먼시아1단지</buildAddress>
<buildPlace>1단지 현관 입구</buildPlace>
<clerkTel>064-711-8060</clerkTel>
<manager>정희종</manager>
<managerTel>064-711-8060</managerTel>
<mfg>씨유메디칼</mfg>
<model>NFK200</model>
<org>하귀휴먼시아아파트(1단지)</org>
<rnum>18</rnum>
<wgs84Lat>33.4829745917</wgs84Lat>
<wgs84Lon>126.4164788681</wgs84Lon>
<zipcode1>630</zipcode1>
<zipcode2>54</zipcode2>
</item>
<item>
<buildAddress>부산광역시 사하구 다대로 430 다대동, 다대3지구도개공아파트</buildAddress>
<buildPlace>통합경비실</buildPlace>
<clerkTel>051-264-3282</clerkTel>
<manager>손창휘</manager>
<managerTel>010-***-****</managerTel>
<mfg>(주)나눔테크</mfg>
<model>ReHeart NT-381.C</model>
<org>다대3지구도개공아파트</org>
<rnum>19</rnum>
<wgs84Lat>35.0660282058</wgs84Lat>
<wgs84Lon>128.9791496333</wgs84Lon>
<zipcode1>494</zipcode1>
<zipcode2>90</zipcode2>
</item>
<item>
<buildAddress>인천광역시 서구 서곶로 382</buildAddress>
<buildPlace>고객안내센터 내</buildPlace>
<clerkTel>032-451-4309</clerkTel>
<manager>길유정</manager>
<managerTel>032-451-4309</managerTel>
<mfg>씨유메디칼</mfg>
<model>NF1200</model>
<org>인천교통공사아시아드경기장역</org>
<rnum>20</rnum>
<wgs84Lat>37.5513254491</wgs84Lat>
<wgs84Lon>126.6771346331</wgs84Lon>
<zipcode1>227</zipcode1>
<zipcode2>08</zipcode2>
</item>
<item>
<buildAddress>서울특별시 양천구 가로공원로 86</buildAddress>
<buildPlace>신월청소년문화센터 1층</buildPlace>
<clerkTel>2604-7485</clerkTel>
<manager>이지훈</manager>
<managerTel>010-***-****</managerTel>
<mfg>메디아나</mfg>
<model>Heart On A10</model>
<org>신월청소년문화센터</org>
<rnum>21</rnum>
<wgs84Lat>37.535214496</wgs84Lat>
<wgs84Lon>126.8254796006</wgs84Lon>
<zipcode1>079</zipcode1>
<zipcode2>10</zipcode2>
</item>
<item>
<buildAddress>경상북도 경산시 중앙로 1 경산역 (사정동)</buildAddress>
<buildPlace>경산역 대합실</buildPlace>
<clerkTel>053-816-4973</clerkTel>
<manager>김용태</manager>
<managerTel>010-***-****</managerTel>
<mfg>씨유메디칼</mfg>
<model>NF1200</model>
<org>경산역</org>
<rnum>22</rnum>
<wgs84Lat>35.8194195234</wgs84Lat>
<wgs84Lon>128.7276315577</wgs84Lon>
<zipcode1>386</zipcode1>
<zipcode2>78</zipcode2>
</item>
<item>
<buildAddress>서울특별시 마포구 월드컵북로47길 10</buildAddress>
<buildPlace>관리사무소</buildPlace>
<clerkTel>017-***-****</clerkTel>
<manager>박재헌</manager>
<managerTel>017-***-****</managerTel>
<mfg>(주)메디아나</mfg>
<model>HeartOn A10</model>
<org>상암월드컵1단지임대아파트</org>
<rnum>23</rnum>
<wgs84Lat>37.5752995329</wgs84Lat>
<wgs84Lon>126.8933080792</wgs84Lon>
<zipcode1>039</zipcode1>
<zipcode2>13</zipcode2>
</item>
<item>
<buildAddress>경기도 구리시 동구릉로85번길 17</buildAddress>
<buildPlace>관리사무소 1층 현관입구 내부 좌측 벽면</buildPlace>
<clerkTel>031-563-6558</clerkTel>
<manager>정원영</manager>
<managerTel>0315636558</managerTel>
<mfg>라디안</mfg>
<model>HR-501-B</model>
<org>아름마을원일아파트</org>
<rnum>24</rnum>
<wgs84Lat>37.6097827881</wgs84Lat>
<wgs84Lon>127.1312179561</wgs84Lon>
<zipcode1>119</zipcode1>
<zipcode2>19</zipcode2>
</item>
<item>
<buildAddress>충청남도 서산시 동서1로 130 (석남동, 센스빌아파트)</buildAddress>
<buildPlace>관리사무소</buildPlace>
<clerkTel>041-663-2662</clerkTel>
<manager>김은규</manager>
<managerTel>010-***-****</managerTel>
<mfg>라디안</mfg>
<model>hr-501-b</model>
<org>서산센스빌아파트</org>
<rnum>25</rnum>
<wgs84Lat>36.7676763774</wgs84Lat>
<wgs84Lon>126.4574810317</wgs84Lon>
<zipcode1>319</zipcode1>
<zipcode2>99</zipcode2>
</item>
<item>
<buildAddress>충청남도 보령시 천북면 홍보로 751-2, 장은보건진료소</buildAddress>
<buildPlace>장은보건진료소 옥외</buildPlace>
<clerkTel>0416418974</clerkTel>
<manager>황소연</manager>
<managerTel>041-641-8974</managerTel>
<mfg>나눔테크</mfg>
<model>HeartPlus NT-180B</model>
<org>장은보건진료소</org>
<rnum>26</rnum>
<wgs84Lat>36.5027744582</wgs84Lat>
<wgs84Lon>126.5188876117</wgs84Lon>
<zipcode1>334</zipcode1>
<zipcode2>00</zipcode2>
</item>
<item>
<buildAddress>대구광역시 수성구 야구전설로 1</buildAddress>
<buildPlace>3층 콘코스 중앙(방송중계실앞)</buildPlace>
<clerkTel>053-780-3362</clerkTel>
<manager>김은수</manager>
<managerTel>053-780-3362</managerTel>
<mfg>씨유메디컬시스템</mfg>
<model>i-PAD NF1200</model>
<org>(주)삼성라이온즈</org>
<rnum>27</rnum>
<wgs84Lat>35.8411303719</wgs84Lat>
<wgs84Lon>128.6812359601</wgs84Lon>
<zipcode1>422</zipcode1>
<zipcode2>50</zipcode2>
</item>
<item>
<buildAddress>울산광역시 북구 중산동로 37</buildAddress>
<buildPlace>관리사무소 입구</buildPlace>
<clerkTel>052-285-0543</clerkTel>
<manager>박재영</manager>
<managerTel>052-285-0543</managerTel>
<mfg>(주)나눔테크</mfg>
<model>저출력심장충격기 HeartSaver-A</model>
<org>중산디아채아파트</org>
<rnum>28</rnum>
<wgs84Lat>35.6550929528</wgs84Lat>
<wgs84Lon>129.3514183175</wgs84Lon>
<zipcode1>442</zipcode1>
<zipcode2>13</zipcode2>
</item>
<item>
<buildAddress>서울특별시 동대문구 장안벚꽃로 107</buildAddress>
<buildPlace>복지관 1층</buildPlace>
<clerkTel>6452-5338</clerkTel>
<manager>천태용</manager>
<managerTel>2214-5336</managerTel>
<mfg>(주)씨유메디컬</mfg>
<model>NFK200</model>
<org>장안현대홈타운</org>
<rnum>29</rnum>
<wgs84Lat>37.5710567385</wgs84Lat>
<wgs84Lon>127.0751129785</wgs84Lon>
<zipcode1>026</zipcode1>
<zipcode2>38</zipcode2>
</item>
<item>
<buildAddress>경기도 안산시 단원구 원선1로 37 정문 경비실</buildAddress>
<buildPlace>정문경비실</buildPlace>
<clerkTel>031-482-3779</clerkTel>
<manager>고경수</manager>
<managerTel>010-***-****</managerTel>
<mfg>라디안</mfg>
<model>HR-501</model>
<org>한화꿈에그린아파트</org>
<rnum>30</rnum>
<wgs84Lat>37.3262324529</wgs84Lat>
<wgs84Lon>126.8022610720</wgs84Lon>
<zipcode1>153</zipcode1>
<zipcode2>82</zipcode2>
</item>
<item>
<buildAddress>경기도 파주시 평화로 310 성원포레스타운아파트</buildAddress>
<buildPlace>파주시 평화로 310, 성원포레스트타운아파트 105동 옆 관리사무소</buildPlace>
<clerkTel>031-944-5105</clerkTel>
<manager>최동찬</manager>
<managerTel>031-944-5105</managerTel>
<mfg>(주)나눔테크</mfg>
<model>Heart saver-A</model>
<org>성원포레스트타운</org>
<rnum>31</rnum>
<wgs84Lat>37.7734069414</wgs84Lat>
<wgs84Lon>126.7495263954</wgs84Lon>
<zipcode1>108</zipcode1>
<zipcode2>49</zipcode2>
</item>
<item>
<buildAddress>경상북도 상주시 상산로 223</buildAddress>
<buildPlace>상주시청 현관 1층 로비</buildPlace>
<clerkTel>054-537-7289</clerkTel>
<manager>김은태</manager>
<managerTel>054-537-7289</managerTel>
<mfg>(주)씨유메디칼시스템</mfg>
<model>I-PAD CU-SP1</model>
<org>상주시청</org>
<rnum>32</rnum>
<wgs84Lat>36.4110088379</wgs84Lat>
<wgs84Lon>128.1590881311</wgs84Lon>
<zipcode1>372</zipcode1>
<zipcode2>11</zipcode2>
</item>
<item>
<buildAddress>인천광역시 강화군 교동면 교동서로378번길 56-28, 난정보건진료소</buildAddress>
<buildPlace>환자 대기실</buildPlace>
<clerkTel>032-934-7807</clerkTel>
<managerTel>032-934-7807</managerTel>
<mfg>필립스</mfg>
<model>HEARTSART FRX</model>
<org>난정보건진료소</org>
<rnum>33</rnum>
<wgs84Lat>37.7718391806</wgs84Lat>
<wgs84Lon>126.2392582743</wgs84Lon>
<zipcode1>230</zipcode1>
<zipcode2>03</zipcode2>
</item>
<item>
<buildAddress>부산광역시 남구 분포로 111 1 관리사무소</buildAddress>
<buildPlace>1 관리사무소 내(출입문 옆)</buildPlace>
<clerkTel>051-611-8901</clerkTel>
<manager>유경식</manager>
<managerTel>051-611-8901</managerTel>
<mfg>나눔테크</mfg>
<model>NT-180, HeartSaverA</model>
<org>엘지메트로시티아파트</org>
<rnum>34</rnum>
<wgs84Lat>35.1275318084</wgs84Lat>
<wgs84Lon>129.1119193579</wgs84Lon>
<zipcode1>485</zipcode1>
<zipcode2>16</zipcode2>
</item>
<item>
<buildAddress>울산광역시 남구 화합로 250 벽산강변타운</buildAddress>
<buildPlace>1층 관리사무소 내</buildPlace>
<clerkTel>052-257-7307</clerkTel>
<manager>이상철</manager>
<managerTel>052-257-7307</managerTel>
<mfg>(주)나눔테크</mfg>
<model>Heart keeper</model>
<org>벽산강변타운</org>
<rnum>35</rnum>
<wgs84Lat>35.5466863119</wgs84Lat>
<wgs84Lon>129.3403005765</wgs84Lon>
<zipcode1>447</zipcode1>
<zipcode2>08</zipcode2>
</item>
<item>
<buildAddress>경기도 광명시 목감로 58 (광명동, 광명해모로이연)</buildAddress>
<buildPlace>115동 승강기 앞</buildPlace>
<clerkTel>0220600544</clerkTel>
<manager>조현용</manager>
<managerTel>02-2060-0544</managerTel>
<mfg>(주)나눔테크</mfg>
<model>NT280</model>
<org>광명해모로이연아파트</org>
<rnum>36</rnum>
<wgs84Lat>37.4737874454</wgs84Lat>
<wgs84Lon>126.8460981442</wgs84Lon>
<zipcode1>142</zipcode1>
<zipcode2>95</zipcode2>
</item>
<item>
<buildAddress>부산광역시 연제구 월드컵대로 359</buildAddress>
<buildPlace>공공재활센터</buildPlace>
<clerkTel>051-607-2038</clerkTel>
<manager>염규만</manager>
<managerTel>051-607-2038</managerTel>
<mfg>(주)나눔테크</mfg>
<model>NT280</model>
<rnum>37</rnum>
<wgs84Lat>35.1874194337</wgs84Lat>
<wgs84Lon>129.0600534642</wgs84Lon>
<zipcode1>475</zipcode1>
<zipcode2>27</zipcode2>
</item>
<item>
<buildAddress>충청북도 청주시 흥덕구 옥산면 가락길 60</buildAddress>
<buildPlace>114동 경비실</buildPlace>
<clerkTel>043-277-7734</clerkTel>
<manager>김태권</manager>
<managerTel>010-***-****</managerTel>
<mfg>라디안</mfg>
<model>HR-501</model>
<org>흥덕코오롱하늘채아파트</org>
<rnum>38</rnum>
<wgs84Lat>36.6714751884</wgs84Lat>
<wgs84Lon>127.382440098</wgs84Lon>
<zipcode1>281</zipcode1>
<zipcode2>13</zipcode2>
</item>
<item>
<buildAddress>전라북도 김제시 금산면 모악15길 1</buildAddress>
<buildPlace>금산사 경내 문화재 경비실</buildPlace>
<clerkTel>063-548-7476</clerkTel>
<manager>김장곤</manager>
<managerTel>010-***-****</managerTel>
<mfg>(주)나눔테크</mfg>
<model>NT-318-C</model>
<org>금산사경내(문화재경비실)</org>
<rnum>39</rnum>
<wgs84Lat>35.7225683425</wgs84Lat>
<wgs84Lon>127.0546251723</wgs84Lon>
<zipcode1>543</zipcode1>
<zipcode2>43</zipcode2>
</item>
<item>
<buildAddress>대전광역시 서구 월평북로 11</buildAddress>
<buildPlace>관리사무소 내</buildPlace>
<clerkTel>042-484-1943</clerkTel>
<manager>김현태</manager>
<managerTel>042-484-1943</managerTel>
<mfg>(주)나눔테크</mfg>
<model>nt-381</model>
<org>대전주공둔산3단지</org>
<rnum>40</rnum>
<wgs84Lat>36.3636214122</wgs84Lat>
<wgs84Lon>127.3728433481</wgs84Lon>
<zipcode1>352</zipcode1>
<zipcode2>11</zipcode2>
</item>
<item>
<buildAddress>경기도 성남시 중원구 보통골로 10-7</buildAddress>
<buildPlace>2층 경로당</buildPlace>
<clerkTel>031-741-9601</clerkTel>
<manager>김학재</manager>
<managerTel>031-741-9601</managerTel>
<mfg>(주)씨유메디칼시스템</mfg>
<model>I-PAD CU-SP1</model>
<org>보통골주민의쉼터</org>
<rnum>41</rnum>
<wgs84Lat>37.4345629053</wgs84Lat>
<wgs84Lon>127.1805596876</wgs84Lon>
<zipcode1>132</zipcode1>
<zipcode2>13</zipcode2>
</item>
<item>
<buildAddress>대전광역시 동구 대전로542번길 78 관리사무소</buildAddress>
<buildPlace>관리사무소 내</buildPlace>
<clerkTel>042-286-2500</clerkTel>
<manager>유재진</manager>
<managerTel>042-286-2500</managerTel>
<mfg>나눔테크</mfg>
<model>NT-381C</model>
<org>천동휴먼시아1단지</org>
<rnum>42</rnum>
<wgs84Lat>36.3154866566</wgs84Lat>
<wgs84Lon>127.4460451118</wgs84Lon>
<zipcode1>346</zipcode1>
<zipcode2>86</zipcode2>
</item>
<item>
<buildAddress>울산광역시 남구 팔등로 85 울산신정푸르지오</buildAddress>
<buildPlace>후문 보안실 입구</buildPlace>
<clerkTel>052-256-7739</clerkTel>
<manager>노언석</manager>
<managerTel>010-***-****</managerTel>
<mfg>니혼코덴</mfg>
<model>AED-2100K</model>
<org>신정푸르지오아파트</org>
<rnum>43</rnum>
<wgs84Lat>35.5470156777</wgs84Lat>
<wgs84Lon>129.3137216694</wgs84Lon>
<zipcode1>446</zipcode1>
<zipcode2>82</zipcode2>
</item>
<item>
<buildAddress>경기도 수원시 팔달구 장다리로306번길 29 .</buildAddress>
<buildPlace>정문경비실</buildPlace>
<clerkTel>031-232-7138</clerkTel>
<manager>한익환</manager>
<managerTel>031-232-7138</managerTel>
<mfg>라디안</mfg>
<model>저출력심장출력기Heart Guardian-501</model>
<org>신반포수원아파트</org>
<rnum>44</rnum>
<wgs84Lat>37.273982186</wgs84Lat>
<wgs84Lon>127.0307493588</wgs84Lon>
<zipcode1>164</zipcode1>
<zipcode2>84</zipcode2>
</item>
<item>
<buildAddress>전라북도 군산시 서당길 11</buildAddress>
<buildPlace>1차 정문 경비실</buildPlace>
<clerkTel>063-445-3790</clerkTel>
<manager>이동연</manager>
<managerTel>010-***-****</managerTel>
<mfg>(주)씨유메디칼시스템</mfg>
<model>NF1200</model>
<org>구암현대아파트</org>
<rnum>45</rnum>
<wgs84Lat>35.9794195617</wgs84Lat>
<wgs84Lon>126.7516011061</wgs84Lon>
<zipcode1>540</zipcode1>
<zipcode2>44</zipcode2>
</item>
<item>
<buildAddress>경기도 평택시 안중읍 송담1로 65 관리사무소</buildAddress>
<buildPlace>휘트니스센터</buildPlace>
<clerkTel>031-686-9235</clerkTel>
<manager>김병철</manager>
<managerTel>031-686-9235</managerTel>
<mfg>(주)메디아나</mfg>
<model>Heart on A15-G4</model>
<org>안중읍힐스테이트</org>
<rnum>46</rnum>
<wgs84Lat>36.976015533</wgs84Lat>
<wgs84Lon>126.928660978</wgs84Lon>
<zipcode1>179</zipcode1>
<zipcode2>41</zipcode2>
</item>
<item>
<buildAddress>충청남도 태안군 태안읍 동평로 42 (평천휴먼시아아파트)</buildAddress>
<buildPlace>207동 1층 복도</buildPlace>
<clerkTel>041-672-3883</clerkTel>
<manager>김대형</manager>
<managerTel>041-672-3883</managerTel>
<mfg>나눔테크</mfg>
<model>NT-381C</model>
<org>평천휴먼시아 아파트(1층)</org>
<rnum>47</rnum>
<wgs84Lat>36.7508907900</wgs84Lat>
<wgs84Lon>126.3093623899</wgs84Lon>
<zipcode1>321</zipcode1>
<zipcode2>40</zipcode2>
</item>
<item>
<buildAddress>서울특별시 광진구 능동로 92 건대스타시티점 1층 안전실</buildAddress>
<buildPlace>롯데백화점 건대스타시티점 1층 안전실</buildPlace>
<clerkTel>2218-2500</clerkTel>
<manager>조해숙</manager>
<managerTel>010-***-****</managerTel>
<mfg>Philips</mfg>
<model>Heart start FRX 861304</model>
<org>롯데백화점건대스타시티안전실</org>
<rnum>48</rnum>
<wgs84Lat>37.5389980577</wgs84Lat>
<wgs84Lon>127.0712156567</wgs84Lon>
<zipcode1>050</zipcode1>
<zipcode2>65</zipcode2>
</item>
<item>
<buildAddress>인천광역시 강화군 강화읍 중앙로 17-16</buildAddress>
<buildPlace>본관 1층 로비</buildPlace>
<clerkTel>032-933-1988</clerkTel>
<manager>정화정</manager>
<managerTel>032-933-1988</managerTel>
<mfg>나눔테크</mfg>
<model>NT-381</model>
<org>강화군노인복지관</org>
<rnum>49</rnum>
<wgs84Lat>37.7403222524</wgs84Lat>
<wgs84Lon>126.4912093914</wgs84Lon>
<zipcode1>230</zipcode1>
<zipcode2>37</zipcode2>
</item>
<item>
<buildAddress>대구광역시 수성구 야구전설로 1</buildAddress>
<buildPlace>5층 14번 게이트 출입구</buildPlace>
<clerkTel>053-780-3362</clerkTel>
<manager>김은수</manager>
<managerTel>053-780-3362</managerTel>
<mfg>니혼코덴</mfg>
<model>ADE-2100K</model>
<org>(주)삼성라이온즈</org>
<rnum>50</rnum>
<wgs84Lat>35.8411303719</wgs84Lat>
<wgs84Lon>128.6812359601</wgs84Lon>
<zipcode1>422</zipcode1>
<zipcode2>50</zipcode2>
</item>
<item>
<buildAddress>전라남도 여수시 소호4길 45 소호주공관리사무소</buildAddress>
<buildPlace>관리사무소</buildPlace>
<clerkTel>061-692-2061</clerkTel>
<manager>곽영인</manager>
<managerTel>061-692-2061</managerTel>
<mfg>나눔테크</mfg>
<model>ReHeart NT-381</model>
<org>여수소호주공아파트</org>
<rnum>51</rnum>
<wgs84Lat>34.7467214730</wgs84Lat>
<wgs84Lon>127.6482524999</wgs84Lon>
<zipcode1>596</zipcode1>
<zipcode2>66</zipcode2>
</item>
<item>
<buildAddress>부산광역시 기장군 정관읍 산단4로 160 관리사무소</buildAddress>
<buildPlace>정관신도시 LH4단지 관리사무소 옆</buildPlace>
<clerkTel>051-728-0051</clerkTel>
<manager>김귀남</manager>
<managerTel>051-728-0051</managerTel>
<mfg>씨유메디컬시스템</mfg>
<model>CU-SPI</model>
<org>정관신도시LH4단지</org>
<rnum>52</rnum>
<wgs84Lat>35.3213590738</wgs84Lat>
<wgs84Lon>129.1916169120</wgs84Lon>
<zipcode1>460</zipcode1>
<zipcode2>21</zipcode2>
</item>
<item>
<buildAddress>부산광역시 기장군 정관읍 정관2로 24 관리사무소</buildAddress>
<buildPlace>정관휴먼시아2아파트 관리사무소 옆</buildPlace>
<clerkTel>051-727-2768</clerkTel>
<manager>최원용</manager>
<managerTel>0517272768</managerTel>
<mfg>씨유메디컬시스템</mfg>
<model>CU-SPI</model>
<org>정관휴먼시아2아파트</org>
<rnum>53</rnum>
<wgs84Lat>35.3325666974</wgs84Lat>
<wgs84Lon>129.1631355000</wgs84Lon>
<zipcode1>460</zipcode1>
<zipcode2>10</zipcode2>
</item>
<item>
<buildAddress>경기도 광명시 디지털로 63 1213동 1층출입통로</buildAddress>
<buildPlace>아파트 내</buildPlace>
<clerkTel>02-2685-0127</clerkTel>
<manager>심규현</manager>
<managerTel>02-2685-0127</managerTel>
<mfg>(주)나눔테크</mfg>
<model>NT280</model>
<org>철산주공12단지아파트1201동</org>
<rnum>54</rnum>
<wgs84Lat>37.4746756807</wgs84Lat>
<wgs84Lon>126.8716097544</wgs84Lon>
<zipcode1>142</zipcode1>
<zipcode2>38</zipcode2>
</item>
<item>
<buildAddress>인천광역시 계양구 동양로 129 계양3동 주민센터</buildAddress>
<buildPlace>계양3동 주민센터 2층 민원실 내</buildPlace>
<clerkTel>032-430-7913</clerkTel>
<manager>박은미</manager>
<managerTel>032-430-7913</managerTel>
<mfg>(주)라디안</mfg>
<model>HR-501</model>
<org>계양3동주민센터</org>
<rnum>55</rnum>
<wgs84Lat>37.5593711439</wgs84Lat>
<wgs84Lon>126.7593674241</wgs84Lon>
<zipcode1>210</zipcode1>
<zipcode2>12</zipcode2>
</item>
<item>
<buildAddress>경기도 남양주시 도농로 34</buildAddress>
<buildPlace>관리동(107동109동사이) 2층 세콤상황실 내</buildPlace>
<clerkTel>031-558-0455</clerkTel>
<manager>김태진</manager>
<managerTel>031-558-0455</managerTel>
<mfg>니혼코덴코리아㈜</mfg>
<model>AED-2100K</model>
<org>부영1단지아파트</org>
<rnum>56</rnum>
<wgs84Lat>37.6106891122</wgs84Lat>
<wgs84Lon>127.1577669709</wgs84Lon>
<zipcode1>122</zipcode1>
<zipcode2>51</zipcode2>
</item>
<item>
<buildAddress>서울특별시 성동구 마장로 137</buildAddress>
<buildPlace>정문 경비실</buildPlace>
<clerkTel>02-2297-3102</clerkTel>
<manager>한광남</manager>
<managerTel>010-***-****</managerTel>
<mfg>NIHON</mfg>
<model>AED-2100K</model>
<org>텐즈힐2아파트</org>
<rnum>57</rnum>
<wgs84Lat>37.5678235802</wgs84Lat>
<wgs84Lon>127.0250516711</wgs84Lon>
<zipcode1>047</zipcode1>
<zipcode2>00</zipcode2>
</item>
<item>
<buildAddress>제주특별자치도 제주시 아란13길 15, 제주대학교병원 (아라일동)</buildAddress>
<buildPlace>2층 성형외과 앞</buildPlace>
<clerkTel>064-717-1114</clerkTel>
<manager>황영민</manager>
<managerTel>064-717-1063</managerTel>
<mfg>(주)씨유메디칼시스템</mfg>
<model>NK1200</model>
<org>제주대학교병원</org>
<rnum>58</rnum>
<wgs84Lat>33.4672084301</wgs84Lat>
<wgs84Lon>126.5452008139</wgs84Lon>
<zipcode1>632</zipcode1>
<zipcode2>41</zipcode2>
</item>
<item>
<buildAddress>제주특별자치도 제주시 아란13길 15, 제주대학교병원 (아라일동)</buildAddress>
<buildPlace>3층 산부인과 앞</buildPlace>
<clerkTel>064-717-1114</clerkTel>
<manager>황영민</manager>
<managerTel>064-717-1063</managerTel>
<mfg>(주)씨유메디칼시스템</mfg>
<model>NF1200</model>
<org>제주대학교병원</org>
<rnum>59</rnum>
<wgs84Lat>33.4672084301</wgs84Lat>
<wgs84Lon>126.5452008139</wgs84Lon>
<zipcode1>632</zipcode1>
<zipcode2>41</zipcode2>
</item>
<item>
<buildAddress>경기도 안양시 동안구 시민대로159번길 59 (비산동,은하수청구아파트)</buildAddress>
<buildPlace>정문경비실</buildPlace>
<clerkTel>031-381-0850</clerkTel>
<manager>박응준</manager>
<managerTel>010-***-****</managerTel>
<mfg>라디안</mfg>
<model>HR-501</model>
<org>은하수청구아파트</org>
<rnum>60</rnum>
<wgs84Lat>37.3918515361</wgs84Lat>
<wgs84Lon>126.9464850479</wgs84Lon>
<zipcode1>140</zipcode1>
<zipcode2>45</zipcode2>
</item>
<item>
<buildAddress>강원도 강릉시 왕산면 백두대간로 1991 (왕산보건지소)</buildAddress>
<buildPlace>1층민원실 (출입구좌측)</buildPlace>
<clerkTel>033-660-2340</clerkTel>
<manager>왕산보건지소장</manager>
<managerTel>033-640-4429</managerTel>
<mfg>(주)씨유메디칼시스템</mfg>
<model>I-PAD NFK200</model>
<org>왕산보건지소</org>
<rnum>61</rnum>
<wgs84Lat>37.6723059462</wgs84Lat>
<wgs84Lon>128.8377679140</wgs84Lon>
<zipcode1>256</zipcode1>
<zipcode2>39</zipcode2>
</item>
<item>
<buildAddress>인천광역시 서구 장고개로309번길 24</buildAddress>
<buildPlace>관리동</buildPlace>
<clerkTel>032-577-5059</clerkTel>
<manager>관리소장</manager>
<managerTel>032-577-5059</managerTel>
<mfg>(주)라디안</mfg>
<model>HR-501-B</model>
<org>가좌진주2단지아파트</org>
<rnum>62</rnum>
<wgs84Lat>37.4915048871</wgs84Lat>
<wgs84Lon>126.6846110953</wgs84Lon>
<zipcode1>228</zipcode1>
<zipcode2>15</zipcode2>
</item>
<item>
<buildAddress>전라남도 여수시 웅천로 291 관리사무소</buildAddress>
<buildPlace>1층 관리사무실 앞</buildPlace>
<clerkTel>061-692-3311</clerkTel>
<manager>이상채</manager>
<managerTel>061-692-3311</managerTel>
<mfg>(주)라디안</mfg>
<model>Heart Guardian HR-501-B</model>
<org>웅천부영3차아파트</org>
<rnum>63</rnum>
<wgs84Lat>34.7465670442</wgs84Lat>
<wgs84Lon>127.6850271574</wgs84Lon>
<zipcode1>596</zipcode1>
<zipcode2>93</zipcode2>
</item>
<item>
<buildAddress>울산광역시 북구 매산로 66</buildAddress>
<buildPlace>관리사무소</buildPlace>
<clerkTel>052-294-3663</clerkTel>
<manager>차성철</manager>
<managerTel>052-294-3663</managerTel>
<mfg>RADIAN</mfg>
<model>저출력심장충격기HR-501-B</model>
<org>월드메르디앙월드시티2단지아파트</org>
<rnum>64</rnum>
<wgs84Lat>35.6416088414</wgs84Lat>
<wgs84Lon>129.3579152332</wgs84Lon>
<zipcode1>442</zipcode1>
<zipcode2>23</zipcode2>
</item>
<item>
<buildAddress>울산광역시 북구 상방로 160</buildAddress>
<buildPlace>관리사무소 현관</buildPlace>
<clerkTel>052-288-2947</clerkTel>
<manager>장희철</manager>
<managerTel>052-288-2947</managerTel>
<mfg>RADIAN</mfg>
<model>HR-501</model>
<org>벽산늘푸른아파트</org>
<rnum>65</rnum>
<wgs84Lat>35.5833504839</wgs84Lat>
<wgs84Lon>129.3654749796</wgs84Lon>
<zipcode1>442</zipcode1>
<zipcode2>43</zipcode2>
</item>
<item>
<buildAddress>서울특별시 도봉구 노해로70길 126 1803동</buildAddress>
<buildPlace>1803동</buildPlace>
<clerkTel>02-900-0414</clerkTel>
<manager>황광규</manager>
<managerTel>02-900-0414</managerTel>
<mfg>씨유</mfg>
<model>NF1200</model>
<org>창동주공18단지아파트</org>
<rnum>66</rnum>
<wgs84Lat>37.6475199007</wgs84Lat>
<wgs84Lon>127.0540615912</wgs84Lon>
<zipcode1>014</zipcode1>
<zipcode2>20</zipcode2>
</item>
<item>
<buildAddress>대구광역시 동구 팔공로 274</buildAddress>
<buildPlace>관리사무소 내</buildPlace>
<clerkTel>053-986-8861</clerkTel>
<manager>이수점</manager>
<managerTel>053-986-8861</managerTel>
<mfg>(주)라디안</mfg>
<model>HR-501-B</model>
<org>이시아폴리스더샵2차</org>
<rnum>67</rnum>
<wgs84Lat>35.9249404941</wgs84Lat>
<wgs84Lon>128.6423011550</wgs84Lon>
<zipcode1>410</zipcode1>
<zipcode2>22</zipcode2>
</item>
<item>
<buildAddress>대구광역시 동구 반야월북로 251</buildAddress>
<buildPlace>관리사무소 1층 출입문</buildPlace>
<clerkTel>053-961-0881</clerkTel>
<manager>이석호</manager>
<managerTel>053-961-0881</managerTel>
<mfg>(주)씨유메디칼시스템</mfg>
<model>CU-SP1 plus</model>
<org>신서그린빌</org>
<rnum>68</rnum>
<wgs84Lat>35.8736941193</wgs84Lat>
<wgs84Lon>128.7252569910</wgs84Lon>
<zipcode1>410</zipcode1>
<zipcode2>75</zipcode2>
</item>
<item>
<buildAddress>경기도 안양시 동안구 학의로 168 (관양동,공작럭키아파트)</buildAddress>
<buildPlace>관리동1층 노인정현관</buildPlace>
<clerkTel>031-383-4491</clerkTel>
<manager>안병기</manager>
<managerTel>010-***-****</managerTel>
<mfg>나눔테크</mfg>
<model>Heart Saver-A</model>
<org>공작럭키아파트</org>
<rnum>69</rnum>
<wgs84Lat>37.4008606248</wgs84Lat>
<wgs84Lon>126.9575812538</wgs84Lon>
<zipcode1>140</zipcode1>
<zipcode2>50</zipcode2>
</item>
<item>
<buildAddress>세종특별자치시 세종시 세종특별자치시 시청대로 236 (소담동, 새샘마을3단지)</buildAddress>
<buildPlace>관리사무소 앞</buildPlace>
<clerkTel>044-867-3847</clerkTel>
<manager>노수철</manager>
<managerTel>044-867-3847</managerTel>
<mfg>씨유메디칼시스템</mfg>
<model>CU SPI-plus</model>
<org>새샘마을3단지아파트</org>
<rnum>70</rnum>
<wgs84Lat>36.4850657515</wgs84Lat>
<wgs84Lon>127.2960480720</wgs84Lon>
<zipcode1>301</zipcode1>
<zipcode2>51</zipcode2>
</item>
<item>
<buildAddress>경기도 평택시 중앙2로 94</buildAddress>
<buildPlace>아파트단지 주출입구 우측 경비초소</buildPlace>
<clerkTel>031-654-3175</clerkTel>
<manager>이항범</manager>
<managerTel>031-654-3175</managerTel>
<mfg>(주)메디아나</mfg>
<model>HeartOn A10</model>
<org>합정주공2단지</org>
<rnum>71</rnum>
<wgs84Lat>36.9898799249</wgs84Lat>
<wgs84Lon>127.0986121872</wgs84Lon>
<zipcode1>179</zipcode1>
<zipcode2>13</zipcode2>
</item>
<item>
<buildAddress>충청북도 단양군 단성면 하방3길 100</buildAddress>
<buildPlace>편의점 출입문 옆</buildPlace>
<clerkTel>043-421-1671</clerkTel>
<manager>고경도</manager>
<managerTel>043-421-1671</managerTel>
<mfg>katecho.Inc</mfg>
<model>NF1200</model>
<org>(주)광동유통단양하휴게소</org>
<rnum>72</rnum>
<wgs84Lat>36.9427894089</wgs84Lat>
<wgs84Lon>128.3222282992</wgs84Lon>
<zipcode1>270</zipcode1>
<zipcode2>25</zipcode2>
</item>
<item>
<buildAddress>광주광역시 서구 화운로 278 통합경비실</buildAddress>
<buildPlace>통합경비실</buildPlace>
<clerkTel>062-367-1300</clerkTel>
<manager>강민재</manager>
<managerTel>062-367-1300</managerTel>
<mfg>(주)메디아나</mfg>
<model>HeartOnA10</model>
<org>광천동e편한세상</org>
<rnum>73</rnum>
<wgs84Lat>35.1621662262</wgs84Lat>
<wgs84Lon>126.8775778887</wgs84Lon>
<zipcode1>619</zipcode1>
<zipcode2>16</zipcode2>
</item>
<item>
<buildAddress>경기도 안양시 동안구 안양천동로 162 (비산동,비산힐스테이트아파트)</buildAddress>
<buildPlace>정문경비실</buildPlace>
<clerkTel>031-447-2700</clerkTel>
<managerTel>031-447-2700</managerTel>
<mfg>나눔테크</mfg>
<model>Heart Pro NT-280</model>
<org>비산힐스테이트아파트</org>
<rnum>74</rnum>
<wgs84Lat>37.3939331260</wgs84Lat>
<wgs84Lon>126.9403700987</wgs84Lon>
<zipcode1>140</zipcode1>
<zipcode2>39</zipcode2>
</item>
<item>
<buildAddress>경상남도 양산시 물금읍 야리로 76</buildAddress>
<buildPlace>경비실</buildPlace>
<clerkTel>055-367-1301</clerkTel>
<manager>문욱정</manager>
<managerTel>055-367-1301</managerTel>
<mfg>(주)라디안</mfg>
<model>Heart Guardian HR-501-B</model>
<org>대방노블랜드연리지2차</org>
<rnum>75</rnum>
<wgs84Lat>35.3137248868</wgs84Lat>
<wgs84Lon>129.0042931268</wgs84Lon>
<zipcode1>506</zipcode1>
<zipcode2>53</zipcode2>
</item>
<item>
<buildAddress>전라남도 영광군 영광읍 물무로2길 41</buildAddress>
<buildPlace>영광수화통역센터</buildPlace>
<clerkTel>3526313</clerkTel>
<manager>김지윤</manager>
<managerTel>352-6313</managerTel>
<mfg>씨유메디컬</mfg>
<model>i-PAD NF1200</model>
<org>수화통역센터</org>
<rnum>76</rnum>
<wgs84Lat>35.2770080671</wgs84Lat>
<wgs84Lon>126.5107003225</wgs84Lon>
<zipcode1>570</zipcode1>
<zipcode2>36</zipcode2>
</item>
<item>
<buildAddress>경기도 화성시 봉담읍 동화길 81-13</buildAddress>
<buildPlace>101동 관리사무소</buildPlace>
<clerkTel>031-298-7172</clerkTel>
<manager>장세창</manager>
<managerTel>010-***-****</managerTel>
<mfg>라디안</mfg>
<model>HR501</model>
<org>동화마을휴먼시아1단지</org>
<rnum>77</rnum>
<wgs84Lat>37.2180600596</wgs84Lat>
<wgs84Lon>126.9584933405</wgs84Lon>
<zipcode1>183</zipcode1>
<zipcode2>02</zipcode2>
</item>
<item>
<buildAddress>인천광역시 남동구 염전로 440 (간석동,신동아파밀리에아파트)</buildAddress>
<buildPlace>간석신동아파밀리에아파트 정문관리동 1층</buildPlace>
<clerkTel>032-872-0714</clerkTel>
<manager>장시호</manager>
<managerTel>032-872-0714</managerTel>
<mfg>(주)라디안</mfg>
<model>HR-501-B</model>
<org>간석신동아파밀리에아파트</org>
<rnum>78</rnum>
<wgs84Lat>37.4684473464</wgs84Lat>
<wgs84Lon>126.6894088264</wgs84Lon>
<zipcode1>215</zipcode1>
<zipcode2>01</zipcode2>
</item>
<item>
<buildAddress>인천광역시 남동구 남동서로 208 (고잔동)</buildAddress>
<buildPlace>고잔119안전센터 펌프차량(86보9553)</buildPlace>
<clerkTel>032-723-5566</clerkTel>
<manager>지영현</manager>
<managerTel>032-817-0119</managerTel>
<mfg>(주)씨유메디칼시스템</mfg>
<model>I-PAD CU-SP1</model>
<org>인천공단소방서</org>
<rnum>79</rnum>
<wgs84Lat>37.4081763111</wgs84Lat>
<wgs84Lon>126.6929983393</wgs84Lon>
<zipcode1>216</zipcode1>
<zipcode2>32</zipcode2>
</item>
<item>
<buildAddress>인천광역시 남동구 비류대로 667 ,도림119안전센터(남촌동)</buildAddress>
<buildPlace>도림119안전센터 펌프차(82어5647)</buildPlace>
<clerkTel>032-723-5566</clerkTel>
<manager>지영현</manager>
<managerTel>032-817-0119</managerTel>
<mfg>(주)씨유메디칼시스템</mfg>
<model>I-PAD CU-SP1</model>
<org>인천공단소방서</org>
<rnum>80</rnum>
<wgs84Lat>37.4226801629</wgs84Lat>
<wgs84Lon>126.7091123248</wgs84Lon>
<zipcode1>216</zipcode1>
<zipcode2>22</zipcode2>
</item>
<item>
<buildAddress>대구광역시 수성구 야구전설로 1</buildAddress>
<buildPlace>1층 로비</buildPlace>
<clerkTel>053-780-3362</clerkTel>
<manager>김은수</manager>
<managerTel>053-780-3362</managerTel>
<mfg>니혼코덴</mfg>
<model>ADE-2100K</model>
<org>(주)삼성라이온즈</org>
<rnum>81</rnum>
<wgs84Lat>35.8411303719</wgs84Lat>
<wgs84Lon>128.6812359601</wgs84Lon>
<zipcode1>422</zipcode1>
<zipcode2>50</zipcode2>
</item>
<item>
<buildAddress>서울특별시 동대문구 홍릉로10길 48 (청량리동, 홍릉동부아파트)</buildAddress>
<buildPlace>관리사무소 내</buildPlace>
<clerkTel>959-7200</clerkTel>
<manager>민한식(소장)</manager>
<managerTel>010-***-****</managerTel>
<mfg>(주)나눔테크</mfg>
<model>HeartPLus NT-180</model>
<org>홍릉동부센트레빌(제1관리사무소)</org>
<rnum>82</rnum>
<wgs84Lat>37.5857974166</wgs84Lat>
<wgs84Lon>127.0462614013</wgs84Lon>
<zipcode1>024</zipcode1>
<zipcode2>85</zipcode2>
</item>
<item>
<buildAddress>제주특별자치도 제주시 아란13길 15, 제주대학교병원 (아라일동)</buildAddress>
<buildPlace>3층 32병동</buildPlace>
<clerkTel>064-717-1114</clerkTel>
<manager>황영민</manager>
<managerTel>064-717-1063</managerTel>
<mfg>(주)씨유메디칼시스템</mfg>
<model>NF1200</model>
<org>제주대학교병원</org>
<rnum>83</rnum>
<wgs84Lat>33.4672084301</wgs84Lat>
<wgs84Lon>126.5452008139</wgs84Lon>
<zipcode1>632</zipcode1>
<zipcode2>41</zipcode2>
</item>
<item>
<buildAddress>울산광역시 북구 천곡길 199</buildAddress>
<buildPlace>104동 1호 출입구 승강기 앞</buildPlace>
<clerkTel>052-285-0493</clerkTel>
<manager>박제환</manager>
<managerTel>052-285-0493</managerTel>
<mfg>RADIAN</mfg>
<model>HR-501</model>
<org>우방아파트</org>
<rnum>84</rnum>
<wgs84Lat>35.6379932163</wgs84Lat>
<wgs84Lon>129.3247752810</wgs84Lon>
<zipcode1>442</zipcode1>
<zipcode2>02</zipcode2>
</item>
<item>
<buildAddress>서울특별시 도봉구 노해로70길 126 1805동</buildAddress>
<buildPlace>1805동</buildPlace>
<clerkTel>02-900-0414</clerkTel>
<manager>황광규</manager>
<managerTel>02-900-0414</managerTel>
<mfg>씨유</mfg>
<model>NF1200</model>
<org>창동주공18단지아파트</org>
<rnum>85</rnum>
<wgs84Lat>37.6468263968</wgs84Lat>
<wgs84Lon>127.0535058604</wgs84Lon>
<zipcode1>014</zipcode1>
<zipcode2>20</zipcode2>
</item>
<item>
<buildAddress>대구광역시 동구 파계로 71</buildAddress>
<buildPlace>관리사무소 현관 앞</buildPlace>
<clerkTel>053-986-8001</clerkTel>
<manager>정성호</manager>
<managerTel>053-986-8001</managerTel>
<mfg>(주)메디아나</mfg>
<model>A10</model>
<org>팔공3차보성타운</org>
<rnum>86</rnum>
<wgs84Lat>35.9408043610</wgs84Lat>
<wgs84Lon>128.6360692913</wgs84Lon>
<zipcode1>410</zipcode1>
<zipcode2>02</zipcode2>
</item>
<item>
<buildAddress>인천광역시 남동구 장승남로33번길 21 (만수동,대동아파트)</buildAddress>
<buildPlace>대동9차아파트 관리사무소 1층우측</buildPlace>
<clerkTel>032-464-0149</clerkTel>
<manager>양우송</manager>
<managerTel>032-464-0149</managerTel>
<mfg>(주)라디안</mfg>
<model>HR-501-B</model>
<org>대동9차아파트</org>
<rnum>87</rnum>
<wgs84Lat>37.4443573528</wgs84Lat>
<wgs84Lon>126.7358514021</wgs84Lon>
<zipcode1>215</zipcode1>
<zipcode2>94</zipcode2>
</item>
<item>
<buildAddress>충청북도 음성군 감곡면 음성로 2650-22 관리사무소입구</buildAddress>
<buildPlace>관리사무소입구</buildPlace>
<clerkTel>883-4422</clerkTel>
<manager>고제귀</manager>
<managerTel>010-***-****</managerTel>
<mfg>씨유메디칼시스템</mfg>
<model>CU-SP1 PLUS</model>
<org>감곡한마음아파트</org>
<rnum>88</rnum>
<wgs84Lat>37.1114738419</wgs84Lat>
<wgs84Lon>127.6448679233</wgs84Lon>
<zipcode1>276</zipcode1>
<zipcode2>11</zipcode2>
</item>
<item>
<buildAddress>부산광역시 해운대구 대천로103번길 61</buildAddress>
<buildPlace>121동 경비실</buildPlace>
<clerkTel>051-701-9198</clerkTel>
<manager>전정식</manager>
<managerTel>051-701-9198</managerTel>
<mfg>(주)라디안</mfg>
<model>HR-501-B</model>
<org>해운대LG아파트</org>
<rnum>89</rnum>
<wgs84Lat>35.1806675891</wgs84Lat>
<wgs84Lon>129.1738662465</wgs84Lon>
<zipcode1>480</zipcode1>
<zipcode2>75</zipcode2>
</item>
<item>
<buildAddress>부산광역시 해운대구 대천로103번길 61</buildAddress>
<buildPlace>119동 경비실</buildPlace>
<clerkTel>051-701-9198</clerkTel>
<manager>전정식</manager>
<managerTel>051-701-9198</managerTel>
<mfg>(주)라디안</mfg>
<model>HR-501-B</model>
<org>해운대LG아파트</org>
<rnum>90</rnum>
<wgs84Lat>35.1806675891</wgs84Lat>
<wgs84Lon>129.1738662465</wgs84Lon>
<zipcode1>480</zipcode1>
<zipcode2>75</zipcode2>
</item>
<item>
<buildAddress>경기도 남양주시 천마산로 25</buildAddress>
<buildPlace>정문 경비실(102동103동사이) 내부</buildPlace>
<clerkTel>031-511-1864</clerkTel>
<manager>박병길</manager>
<managerTel>031-511-1864</managerTel>
<mfg>㈜나눔테크</mfg>
<model>HeartKeeper(NT-180)</model>
<org>호평1차대명루첸아파트</org>
<rnum>91</rnum>
<wgs84Lat>37.6642188667</wgs84Lat>
<wgs84Lon>127.2459382466</wgs84Lon>
<zipcode1>121</zipcode1>
<zipcode2>41</zipcode2>
</item>
<item>
<buildAddress>서울특별시 동대문구 답십리로69길 27</buildAddress>
<buildPlace>1층 중앙현관 뒷문통로</buildPlace>
<clerkTel>2243-6108</clerkTel>
<manager>곽정은</manager>
<managerTel>010-***-****</managerTel>
<mfg>(주)메디아나</mfg>
<model>HEARTON-A15-G14</model>
<org>장평초등학교</org>
<rnum>92</rnum>
<wgs84Lat>37.5739947514</wgs84Lat>
<wgs84Lon>127.0738933543</wgs84Lon>
<zipcode1>025</zipcode1>
<zipcode2>23</zipcode2>
</item>
<item>
<buildAddress>강원도 강릉시 회산로 344 (서희스타힐스리버파크 아파트)</buildAddress>
<buildPlace>관리소출입문 좌측</buildPlace>
<clerkTel>033-655-8846</clerkTel>
<manager>홍석호</manager>
<managerTel>033-655-8846</managerTel>
<mfg>(주)라디안</mfg>
<model>EDU-AED</model>
<org>강릉서희스타힐스아파트</org>
<rnum>93</rnum>
<wgs84Lat>37.739032915</wgs84Lat>
<wgs84Lon>128.8660518690</wgs84Lon>
<zipcode1>255</zipcode1>
<zipcode2>99</zipcode2>
</item>
<item>
<buildAddress>경기도 평택시 안중읍 송담1로 65 관리사무소</buildAddress>
<buildPlace>관리사무소, 휘트니스센터, 후문경비실</buildPlace>
<clerkTel>031-686-9235</clerkTel>
<manager>김병철</manager>
<managerTel>031-686-9235</managerTel>
<mfg>(주)메디아나</mfg>
<model>Hearton A15-G4</model>
<org>안중읍힐스테이트</org>
<rnum>94</rnum>
<wgs84Lat>36.976015533</wgs84Lat>
<wgs84Lon>126.928660978</wgs84Lon>
<zipcode1>179</zipcode1>
<zipcode2>41</zipcode2>
</item>
<item>
<buildAddress>경기도 평택시 안중읍 송담1로 65 관리사무소</buildAddress>
<buildPlace>관리사무소</buildPlace>
<clerkTel>031-686-9235</clerkTel>
<manager>김병철</manager>
<managerTel>031-686-9235</managerTel>
<mfg>(주)메디아나</mfg>
<model>Hearton A15-G4</model>
<org>안중읍힐스테이트</org>
<rnum>95</rnum>
<wgs84Lat>36.976015533</wgs84Lat>
<wgs84Lon>126.928660978</wgs84Lon>
<zipcode1>179</zipcode1>
<zipcode2>41</zipcode2>
</item>
<item>
<buildAddress>충청북도 청주시 상당구 대성로172번길 21 (수동)</buildAddress>
<buildPlace>1층 민원실 앞</buildPlace>
<clerkTel>0432013355</clerkTel>
<manager>이해신</manager>
<managerTel>043-201-3355</managerTel>
<mfg>㈜나눔테크</mfg>
<model>HeartPlus NT-180</model>
<org>흥덕구보건소별관</org>
<rnum>96</rnum>
<wgs84Lat>36.6411951385</wgs84Lat>
<wgs84Lon>127.4929022214</wgs84Lon>
<zipcode1>360</zipcode1>
<zipcode2>112</zipcode2>
</item>
<item>
<buildAddress>인천광역시 서구 청라라임로 85</buildAddress>
<buildPlace>관리사무소</buildPlace>
<clerkTel>032-568-8417</clerkTel>
<manager>관리소장</manager>
<managerTel>032-568-8417</managerTel>
<mfg>(주)씨유메디칼시스템</mfg>
<model>i-PAD CU-SP1</model>
<org>청라린스트라우스아파트</org>
<rnum>97</rnum>
<wgs84Lat>37.5347387817</wgs84Lat>
<wgs84Lon>126.6526046548</wgs84Lon>
<zipcode1>227</zipcode1>
<zipcode2>36</zipcode2>
</item>
<item>
<buildAddress>충청남도 보령시 청소면 평촌3길 27, 청소보건지소</buildAddress>
<buildPlace>청소보건지소 옥외</buildPlace>
<clerkTel>0419329527</clerkTel>
<manager>신미경</manager>
<managerTel>041-932-9527</managerTel>
<mfg>씨유메디칼</mfg>
<model>NF-1200</model>
<org>청소보건지소</org>
<rnum>98</rnum>
<wgs84Lat>36.4472671109</wgs84Lat>
<wgs84Lon>126.5903986082</wgs84Lon>
<zipcode1>334</zipcode1>
<zipcode2>18</zipcode2>
</item>
<item>
<buildAddress>울산광역시 울주군 언양읍 북문11길 9</buildAddress>
<buildPlace>정문경비실 앞</buildPlace>
<clerkTel>052-254-4580</clerkTel>
<manager>송강호</manager>
<managerTel>010-***-****</managerTel>
<mfg>(주)라디안</mfg>
<model>HR-501</model>
<org>신울산경남아너스빌아파트</org>
<rnum>99</rnum>
<wgs84Lat>35.5720811127</wgs84Lat>
<wgs84Lon>129.1237740020</wgs84Lon>
<zipcode1>449</zipcode1>
<zipcode2>38</zipcode2>
</item>
<item>
<buildAddress>경기도 안산시 단원구 신길로 62 관리사무소</buildAddress>
<buildPlace>관리사무소 내</buildPlace>
<clerkTel>031-491-7942</clerkTel>
<manager>기호열</manager>
<managerTel>010-***-****</managerTel>
<mfg>CU메디칼</mfg>
<model>SP-1</model>
<org>신길휴먼시아6단지</org>
<rnum>100</rnum>
<wgs84Lat>37.3374288331</wgs84Lat>
<wgs84Lon>126.7888076552</wgs84Lon>
<zipcode1>154</zipcode1>
<zipcode2>01</zipcode2>
</item>
<item>
<buildAddress>경기도 광명시 디지털로 63 1212동 1층출입통로</buildAddress>
<buildPlace>아파트 내</buildPlace>
<clerkTel>02-2685-0127</clerkTel>
<manager>심규현</manager>
<managerTel>02-2685-0127</managerTel>
<mfg>(주)나눔테크</mfg>
<model>NT280</model>
<org>철산주공12단지아파트1201동</org>
<rnum>101</rnum>
<wgs84Lat>37.4746756807</wgs84Lat>
<wgs84Lon>126.8716097544</wgs84Lon>
<zipcode1>142</zipcode1>
<zipcode2>38</zipcode2>
</item>
<item>
<buildAddress>충청북도 음성군 감곡면 오향로 31 관리사무소</buildAddress>
<buildPlace>관리사무소입구</buildPlace>
<clerkTel>882-1181</clerkTel>
<manager>정화성</manager>
<managerTel>010-***-****</managerTel>
<mfg>라디안</mfg>
<model>라디안HR-501</model>
<org>음성감곡휴먼시아아파트</org>
<rnum>102</rnum>
<wgs84Lat>37.1096528784</wgs84Lat>
<wgs84Lon>127.6456850169</wgs84Lon>
<zipcode1>276</zipcode1>
<zipcode2>11</zipcode2>
</item>
<item>
<buildAddress>부산광역시 북구 효열로 76 관리사무소</buildAddress>
<buildPlace>목욕탕 사무실 입구</buildPlace>
<clerkTel>051-361-2115</clerkTel>
<manager>황성현</manager>
<managerTel>051-361-2115</managerTel>
<mfg>(주)나눔테크</mfg>
<model>NT-280</model>
<org>금곡4단지주공아파트</org>
<rnum>103</rnum>
<wgs84Lat>35.2536424734</wgs84Lat>
<wgs84Lon>129.0153893201</wgs84Lon>
<zipcode1>465</zipcode1>
<zipcode2>14</zipcode2>
</item>
<item>
<buildAddress>광주광역시 서구 내방로240번길 10</buildAddress>
<buildPlace>3초소 경비실</buildPlace>
<clerkTel>062-375-3172</clerkTel>
<manager>나용상</manager>
<managerTel>062-375-3172</managerTel>
<mfg>(주)나눔테크</mfg>
<model>Heart Plus NT-180</model>
<org>쌍촌현대아파트</org>
<rnum>104</rnum>
<wgs84Lat>35.1566891694</wgs84Lat>
<wgs84Lon>126.8669400771</wgs84Lon>
<zipcode1>619</zipcode1>
<zipcode2>67</zipcode2>
</item>
<item>
<buildAddress>대구광역시 달서구 이곡동로 32</buildAddress>
<buildPlace>관리사무소</buildPlace>
<clerkTel>053-582-8815</clerkTel>
<manager>김은주</manager>
<managerTel>0535828815</managerTel>
<mfg>(주)씨유메디칼시스템</mfg>
<model>CU-SP1</model>
<org>성서와룡타운</org>
<rnum>105</rnum>
<wgs84Lat>35.8528659666</wgs84Lat>
<wgs84Lon>128.5120652962</wgs84Lon>
<zipcode1>426</zipcode1>
<zipcode2>20</zipcode2>
</item>
<item>
<buildAddress>경기도 의왕시 내손로 57</buildAddress>
<buildPlace>1104동 관리사무소 1단지 내</buildPlace>
<clerkTel>031-421-7172</clerkTel>
<manager>유민석</manager>
<managerTel>0314217172</managerTel>
<mfg>(주)메디아나</mfg>
<model>Hearton A15-G4</model>
<org>의왕내손이편한세상아파트</org>
<rnum>106</rnum>
<wgs84Lat>37.3855281392</wgs84Lat>
<wgs84Lon>126.9771138872</wgs84Lon>
<zipcode1>160</zipcode1>
<zipcode2>25</zipcode2>
</item>
<item>
<buildAddress>울산광역시 남구 월평로 272 삼신현대아파트</buildAddress>
<buildPlace>1층 관리사무소 내</buildPlace>
<manager>박춘호</manager>
<managerTel>010-***-****</managerTel>
<mfg>(주)라디안</mfg>
<model>Heart Guardian, HR-501</model>
<org>삼신현대아파트</org>
<rnum>107</rnum>
<wgs84Lat>35.5461517574</wgs84Lat>
<wgs84Lon>129.3342256406</wgs84Lon>
<zipcode1>446</zipcode1>
<zipcode2>99</zipcode2>
</item>
<item>
<buildAddress>경기도 하남시 미사강변대로 165 아파트관리 사무소</buildAddress>
<buildPlace>아파트관리사무소 내 </buildPlace>
<clerkTel>031-795-3774</clerkTel>
<manager>김수정</manager>
<managerTel>031-795-3774</managerTel>
<mfg>Philips</mfg>
<model>Heart Start HS1</model>
<org>미사강변푸르지오아파트</org>
<rnum>108</rnum>
<wgs84Lat>37.5660697466</wgs84Lat>
<wgs84Lon>127.1830498612</wgs84Lon>
<zipcode1>129</zipcode1>
<zipcode2>14</zipcode2>
</item>
<item>
<buildAddress>인천광역시 남동구 청능대로718번길 7 (논현동,소래마을풍림아파트)</buildAddress>
<buildPlace>관리동 1층 노인정앞</buildPlace>
<clerkTel>032-441-0334</clerkTel>
<manager>최재복</manager>
<managerTel>010-***-****</managerTel>
<mfg>(주)라디안</mfg>
<model>HR-501-B</model>
<org>논현풍림아파트</org>
<rnum>109</rnum>
<wgs84Lat>37.4064478618</wgs84Lat>
<wgs84Lon>126.7379950343</wgs84Lon>
<zipcode1>216</zipcode1>
<zipcode2>70</zipcode2>
</item>
<item>
<buildAddress>대구광역시 북구 매전로 70</buildAddress>
<buildPlace>1층 중앙현관 행정실 옆</buildPlace>
<clerkTel>231-6771</clerkTel>
<manager>안연화</manager>
<managerTel>053-231-6771</managerTel>
<mfg>라디안</mfg>
<model>저출력심장충격기</model>
<org>매천고등학교</org>
<rnum>110</rnum>
<wgs84Lat>35.9115946745</wgs84Lat>
<wgs84Lon>128.5472384134</wgs84Lon>
<zipcode1>414</zipcode1>
<zipcode2>71</zipcode2>
</item>
<item>
<buildAddress>경기도 양주시 삼숭로58번길 115 양주자이6단지 아파트</buildAddress>
<buildPlace>양주자이6단지 관리사무소 내</buildPlace>
<clerkTel>1969-0505</clerkTel>
<manager>구자향</manager>
<managerTel>1969-0505</managerTel>
<mfg>라디안</mfg>
<model>HR-501-B</model>
<org>양주자이6단지</org>
<rnum>111</rnum>
<wgs84Lat>37.8027827118</wgs84Lat>
<wgs84Lon>127.1056330064</wgs84Lon>
<zipcode1>114</zipcode1>
<zipcode2>84</zipcode2>
</item>
<item>
<buildAddress>전라남도 광양시 광양읍 용강1길 12 (창덕에버빌(2단지))</buildAddress>
<buildPlace>4초소경비실(205동앞)</buildPlace>
<clerkTel>061-762-9748</clerkTel>
<manager>차훈</manager>
<managerTel>061-762-9748</managerTel>
<mfg>(주)나눔테크</mfg>
<model>ReHeart NT-381</model>
<org>창덕2차아파트</org>
<rnum>112</rnum>
<wgs84Lat>34.972605861</wgs84Lat>
<wgs84Lon>127.6119020966</wgs84Lon>
<zipcode1>577</zipcode1>
<zipcode2>46</zipcode2>
</item>
<item>
<buildAddress>경기도 광명시 디지털로 63 1215동 1층 승강장</buildAddress>
<buildPlace>아파트 내</buildPlace>
<clerkTel>02-2685-0127</clerkTel>
<manager>심규현</manager>
<managerTel>02-2685-0127</managerTel>
<mfg>(주)나눔테크</mfg>
<model>NT280</model>
<org>철산주공12단지아파트1201동</org>
<rnum>113</rnum>
<wgs84Lat>37.4746756807</wgs84Lat>
<wgs84Lon>126.8716097544</wgs84Lon>
<zipcode1>142</zipcode1>
<zipcode2>38</zipcode2>
</item>
<item>
<buildAddress>경기도 남양주시 평내로 104</buildAddress>
<buildPlace>정문 경비실초소(1902동 근처) 내</buildPlace>
<clerkTel>031-559-0057</clerkTel>
<manager>신종석</manager>
<managerTel>031-559-0057</managerTel>
<mfg>㈜라디안</mfg>
<model>heart Guardian</model>
<org>평내대주파크빌2차아파트</org>
<rnum>114</rnum>
<wgs84Lat>37.6445044691</wgs84Lat>
<wgs84Lon>127.2376074088</wgs84Lon>
<zipcode1>122</zipcode1>
<zipcode2>26</zipcode2>
</item>
<item>
<buildAddress>울산광역시 북구 달천로 103-19</buildAddress>
<buildPlace>관리사무소</buildPlace>
<clerkTel>052-281-7725</clerkTel>
<manager>김보현</manager>
<managerTel>052-281-7725</managerTel>
<mfg>Philips Medical System</mfg>
<model>저출력심장충격기 HeartStart HS1</model>
<org>달천아이파크2차아파트</org>
<rnum>115</rnum>
<wgs84Lat>35.6330443230</wgs84Lat>
<wgs84Lon>129.3274044094</wgs84Lon>
<zipcode1>442</zipcode1>
<zipcode2>05</zipcode2>
</item>
<item>
<buildAddress>서울특별시 강남구 강남대로 438 (역삼동) 스타플렉스 4층</buildAddress>
<buildPlace>씨네샵과 서비스 테이블 사이</buildPlace>
<clerkTel>02-539-9406</clerkTel>
<manager>김기쁨</manager>
<managerTel>02-539-9406</managerTel>
<mfg>(주)나눔테크</mfg>
<model>NT-180</model>
<org>CGV강남점</org>
<rnum>116</rnum>
<wgs84Lat>37.5016429904</wgs84Lat>
<wgs84Lon>127.0263368879</wgs84Lon>
<zipcode1>061</zipcode1>
<zipcode2>23</zipcode2>
</item>
<item>
<buildAddress>서울특별시 도봉구 노해로70길 126 1801동</buildAddress>
<buildPlace>1801동</buildPlace>
<clerkTel>02-900-0414</clerkTel>
<manager>황광규</manager>
<managerTel>02-900-0414</managerTel>
<mfg>씨유</mfg>
<model>NF1200</model>
<org>창동주공18단지아파트</org>
<rnum>117</rnum>
<wgs84Lat>37.6462967249</wgs84Lat>
<wgs84Lon>127.0542589989</wgs84Lon>
<zipcode1>014</zipcode1>
<zipcode2>20</zipcode2>
</item>
<item>
<buildAddress>경기도 안양시 동안구 평촌대로 389 안양종합운동장 (비산동)</buildAddress>
<buildPlace>빙상장 강사실내</buildPlace>
<clerkTel>031-389-5234</clerkTel>
<manager>한경림</manager>
<managerTel>031-389-5234</managerTel>
<mfg>씨유네트</mfg>
<model>NFK200</model>
<org>안양시시설관리공단</org>
<rnum>118</rnum>
<wgs84Lat>37.4051190863</wgs84Lat>
<wgs84Lon>126.9485335043</wgs84Lon>
<zipcode1>139</zipcode1>
<zipcode2>18</zipcode2>
</item>
<item>
<buildAddress>대구광역시 수성구 야구전설로 1</buildAddress>
<buildPlace>2층 외야서포터즈석 하단</buildPlace>
<clerkTel>053-780-3362</clerkTel>
<manager>김은수</manager>
<managerTel>053-780-3362</managerTel>
<mfg>니혼코덴</mfg>
<model>ADE-2100K</model>
<org>(주)삼성라이온즈</org>
<rnum>119</rnum>
<wgs84Lat>35.8411303719</wgs84Lat>
<wgs84Lon>128.6812359601</wgs84Lon>
<zipcode1>422</zipcode1>
<zipcode2>50</zipcode2>
</item>
<item>
<buildAddress>전라남도 영광군 영광읍 영광로 1066</buildAddress>
<buildPlace>노인전문요양원</buildPlace>
<clerkTel>3538760</clerkTel>
<managerTel>353-8760</managerTel>
<mfg>씨유메디컬</mfg>
<model>i-PAD NF1200</model>
<org>영광노인전문요양원</org>
<rnum>120</rnum>
<wgs84Lat>35.2697831437</wgs84Lat>
<wgs84Lon>126.4915018184</wgs84Lon>
<zipcode1>513</zipcode1>
<zipcode2>800</zipcode2>
</item>
<item>
<buildAddress>경상남도 양산시 물금읍 금오로 20</buildAddress>
<buildPlace>교수연구행정동1층</buildPlace>
<clerkTel>055-360-1923</clerkTel>
<manager>담당자</manager>
<managerTel>055-360-1923</managerTel>
<mfg>필립스</mfg>
<model>하트스타트 FRx AED</model>
<org>양산부산대학교병원</org>
<rnum>121</rnum>
<wgs84Lat>35.3269235558</wgs84Lat>
<wgs84Lon>129.0072008398</wgs84Lon>
<zipcode1>506</zipcode1>
<zipcode2>12</zipcode2>
</item>
<item>
<buildAddress>경상남도 진주시 강남로 79</buildAddress>
<buildPlace>본관 원무과 앞</buildPlace>
<manager>하지연</manager>
<mfg>졸메디컬</mfg>
<model>Zoll aed+</model>
<org>경상대학교병원</org>
<rnum>122</rnum>
<wgs84Lat>35.1753899647</wgs84Lat>
<wgs84Lon>128.0960269866</wgs84Lon>
<zipcode1>527</zipcode1>
<zipcode2>27</zipcode2>
</item>
<item>
<buildAddress>경기도 광명시 디지털로 63 1214동 1층출입통로</buildAddress>
<buildPlace>아파트 내</buildPlace>
<clerkTel>02-2685-0127</clerkTel>
<manager>심규현</manager>
<managerTel>02-2685-0127</managerTel>
<mfg>(주)나눔테크</mfg>
<model>NT280</model>
<org>철산주공12단지아파트1201동</org>
<rnum>123</rnum>
<wgs84Lat>37.4746756807</wgs84Lat>
<wgs84Lon>126.8716097544</wgs84Lon>
<zipcode1>142</zipcode1>
<zipcode2>38</zipcode2>
</item>
<item>
<buildAddress>대구광역시 수성구 야구전설로 1</buildAddress>
<buildPlace>외야 패밀리석 전광판 아래</buildPlace>
<clerkTel>053-780-3362</clerkTel>
<manager>김은수</manager>
<managerTel>053-780-3362</managerTel>
<mfg>니혼코덴</mfg>
<model>ADE-2100K</model>
<org>(주)삼성라이온즈</org>
<rnum>124</rnum>
<wgs84Lat>35.8411303719</wgs84Lat>
<wgs84Lon>128.6812359601</wgs84Lon>
<zipcode1>422</zipcode1>
<zipcode2>50</zipcode2>
</item>
<item>
<buildAddress>전라남도 영광군 영광읍 물무로 237-15</buildAddress>
<buildPlace>비룡양로원</buildPlace>
<clerkTel>3513474</clerkTel>
<managerTel>351-3474</managerTel>
<mfg>씨유메디컬</mfg>
<model>i-PAD NF1200</model>
<org>비룡양로원</org>
<rnum>125</rnum>
<wgs84Lat>35.2686296558</wgs84Lat>
<wgs84Lon>126.5161710848</wgs84Lon>
<zipcode1>513</zipcode1>
<zipcode2>800</zipcode2>
</item>
<item>
<buildAddress>강원도 양구군 양구읍 박수근로 366번길 33</buildAddress>
<buildPlace>국민체육센터</buildPlace>
<clerkTel>0334802772</clerkTel>
<manager>체육진흥과장</manager>
<managerTel>033-480-2772</managerTel>
<mfg>NIHONKOHDEN</mfg>
<model>AED</model>
<org>양구군청국민체육센터</org>
<rnum>126</rnum>
<wgs84Lat>38.1063277362</wgs84Lat>
<wgs84Lon>127.9815461126</wgs84Lon>
<zipcode1>255</zipcode1>
<zipcode2>800</zipcode2>
</item>
<item>
<buildAddress>경기도 김포시 김포한강8로 299</buildAddress>
<buildPlace>유치원 내</buildPlace>
<clerkTel>031-985-2792</clerkTel>
<manager>김혜린</manager>
<managerTel>031-985-2792</managerTel>
<mfg>라디안</mfg>
<model>HR-501</model>
<org>김포은솔유치원</org>
<rnum>127</rnum>
<wgs84Lat>37.6446296872</wgs84Lat>
<wgs84Lon>126.63560947</wgs84Lon>
<zipcode1>100</zipcode1>
<zipcode2>67</zipcode2>
</item>
<item>
<buildAddress>인천광역시 남동구 서창남순환로 82 (서창동)</buildAddress>
<buildPlace>청광플러스원아파트 경비실 춯입문 좌측벽</buildPlace>
<clerkTel>032-461-3003</clerkTel>
<manager>시설과장</manager>
<managerTel>032-461-3003</managerTel>
<mfg>(주)라디안</mfg>
<model>Heart Guardian HR-501</model>
<org>청광플러스원아파트</org>
<rnum>128</rnum>
<wgs84Lat>37.4303954869</wgs84Lat>
<wgs84Lon>126.7487716664</wgs84Lon>
<zipcode1>216</zipcode1>
<zipcode2>09</zipcode2>
</item>
<item>
<buildAddress>세종특별자치시 세종시 세종특별자치시 도움6로 11 정부세종청사 6동(어진동)</buildAddress>
<buildPlace>4층 엘리배이터 앞</buildPlace>
<clerkTel>044-201-3151</clerkTel>
<manager>홍기준</manager>
<managerTel>044-201-3151</managerTel>
<mfg>HeartSine</mfg>
<model>Samaritan PAD</model>
<org>국토교통부</org>
<rnum>129</rnum>
<wgs84Lat>36.5049121649</wgs84Lat>
<wgs84Lon>127.2624396935</wgs84Lon>
<zipcode1>301</zipcode1>
<zipcode2>03</zipcode2>
</item>
<item>
<buildAddress>인천광역시 남동구 남동대로 860-1 (간석동)</buildAddress>
<buildPlace>석천사거리역 고객안내센터 앞</buildPlace>
<clerkTel>0324512404</clerkTel>
<manager>배성환</manager>
<managerTel>032-451-2404</managerTel>
<mfg>㈜메디아나</mfg>
<model>Heart On A15-G4</model>
<org>인천교통공사</org>
<rnum>130</rnum>
<wgs84Lat>37.4567869498</wgs84Lat>
<wgs84Lon>126.7105264449</wgs84Lon>
<zipcode1>215</zipcode1>
<zipcode2>48</zipcode2>
</item>
<item>
<buildAddress>대전광역시 유성구 가정로 63 럭키하나아파트 관리사무소</buildAddress>
<buildPlace>관리동 2층</buildPlace>
<clerkTel>042-861-0014</clerkTel>
<manager>송현지</manager>
<managerTel>042-861-0014</managerTel>
<mfg>(주)씨유메디칼시스템</mfg>
<model>i-PAD NF1200</model>
<org>럭키하나아파트</org>
<rnum>131</rnum>
<wgs84Lat>36.3859726238</wgs84Lat>
<wgs84Lon>127.3497853574</wgs84Lon>
<zipcode1>341</zipcode1>
<zipcode2>19</zipcode2>
</item>
<item>
<buildAddress>부산광역시 동구 범일로 108</buildAddress>
<buildPlace>역무실</buildPlace>
<clerkTel>051-678-6117</clerkTel>
<manager>백나예</manager>
<managerTel>051-678-6113</managerTel>
<mfg>메디아나</mfg>
<model>Heart On A15</model>
<org>부산교통공사범일역</org>
<rnum>132</rnum>
<wgs84Lat>35.1407224821</wgs84Lat>
<wgs84Lon>129.0593453288</wgs84Lon>
<zipcode1>487</zipcode1>
<zipcode2>38</zipcode2>
</item>
<item>
<buildAddress>울산광역시 북구 강동산하2로 43</buildAddress>
<buildPlace>경비실</buildPlace>
<clerkTel>052-293-1280</clerkTel>
<manager>안옥희</manager>
<managerTel>052-293-1280</managerTel>
<mfg>Nihon Kohden</mfg>
<model>저출력심장충격기AED-2100K cardiolife</model>
<org>블루마시티푸르지오2차아파트</org>
<rnum>133</rnum>
<wgs84Lat>35.6251725676</wgs84Lat>
<wgs84Lon>129.4377906292</wgs84Lon>
<zipcode1>442</zipcode1>
<zipcode2>64</zipcode2>
</item>
<item>
<buildAddress>경기도 화성시 동탄대로시범길 276</buildAddress>
<buildPlace>2경비초소</buildPlace>
<clerkTel>031-378-6905</clerkTel>
<manager>최응효</manager>
<managerTel>010-***-****</managerTel>
<mfg>라디안</mfg>
<model>HR501</model>
<org>동탄2시범우남퍼스트빌</org>
<rnum>134</rnum>
<wgs84Lat>37.2017956865</wgs84Lat>
<wgs84Lon>127.0996666851</wgs84Lon>
<zipcode1>184</zipcode1>
<zipcode2>77</zipcode2>
</item>
<item>
<buildAddress>경기도 화성시 동탄대로시범길 276</buildAddress>
<buildPlace>관리사무소 내</buildPlace>
<clerkTel>031-378-6905</clerkTel>
<manager>최응효</manager>
<managerTel>010-***-****</managerTel>
<mfg>라디안</mfg>
<model>HR501</model>
<org>동탄2시범우남퍼스트빌</org>
<rnum>135</rnum>
<wgs84Lat>37.2017956865</wgs84Lat>
<wgs84Lon>127.0996666851</wgs84Lon>
<zipcode1>184</zipcode1>
<zipcode2>77</zipcode2>
</item>
<item>
<buildAddress>경기도 안양시 동안구 동안로 102 (호계동, 목련선경아파트)</buildAddress>
<buildPlace>관리동</buildPlace>
<clerkTel>031-381-2008</clerkTel>
<manager>김창균</manager>
<managerTel>031-381-2008</managerTel>
<mfg>나눔테크</mfg>
<model>Heart Pro NT-280</model>
<org>평촌목련2단지(대우선경)</org>
<rnum>136</rnum>
<wgs84Lat>37.3883380790</wgs84Lat>
<wgs84Lon>126.9527648073</wgs84Lon>
<zipcode1>140</zipcode1>
<zipcode2>75</zipcode2>
</item>
<item>
<buildAddress>서울특별시 영등포구 당산로41길 12 당산서중학교</buildAddress>
<buildPlace>교무실과 중앙현관 사이 복도</buildPlace>
<clerkTel>02-2676-4273</clerkTel>
<manager>보건교사(조양희)</manager>
<managerTel>2676-0962</managerTel>
<mfg>씨유메디칼</mfg>
<model>i-PAD NFK200</model>
<org>당산서중학교</org>
<rnum>137</rnum>
<wgs84Lat>37.5324853857</wgs84Lat>
<wgs84Lon>126.8988269041</wgs84Lon>
<zipcode1>072</zipcode1>
<zipcode2>13</zipcode2>
</item>
<item>
<buildAddress>경기도 광명시 디지털로 63 12169동 1층승강장</buildAddress>
<buildPlace>아파트 내</buildPlace>
<clerkTel>02-2685-0127</clerkTel>
<manager>심규현</manager>
<managerTel>02-2685-0127</managerTel>
<mfg>(주)나눔테크</mfg>
<model>NT280</model>
<org>철산주공12단지아파트1201동</org>
<rnum>138</rnum>
<wgs84Lat>37.4746756807</wgs84Lat>
<wgs84Lon>126.8716097544</wgs84Lon>
<zipcode1>142</zipcode1>
<zipcode2>38</zipcode2>
</item>
<item>
<buildAddress>경기도 광명시 목감로 58, 광명해모로이연 (광명동, 광명해모로이연)</buildAddress>
<buildPlace>103동 승강기 앞</buildPlace>
<clerkTel>0220600544</clerkTel>
<manager>조현용</manager>
<managerTel>02-2060-0544</managerTel>
<mfg>(주)나눔테크</mfg>
<model>NT280</model>
<org>광명해모로이연아파트</org>
<rnum>139</rnum>
<wgs84Lat>37.4737874454</wgs84Lat>
<wgs84Lon>126.8460981442</wgs84Lon>
<zipcode1>142</zipcode1>
<zipcode2>95</zipcode2>
</item>
<item>
<buildAddress>경기도 광명시 목감로 58 (광명동, 광명해모로이연)</buildAddress>
<buildPlace>105동 승강기 앞</buildPlace>
<clerkTel>0220600544</clerkTel>
<manager>조현용</manager>
<managerTel>02-2060-0544</managerTel>
<mfg>(주)나눔테크</mfg>
<model>NT280</model>
<org>광명해모로이연아파트</org>
<rnum>140</rnum>
<wgs84Lat>37.4737874454</wgs84Lat>
<wgs84Lon>126.8460981442</wgs84Lon>
<zipcode1>142</zipcode1>
<zipcode2>95</zipcode2>
</item>
<item>
<buildAddress>경기도 광명시 디지털로 63 1218동 1층승강장</buildAddress>
<buildPlace>아파트 내</buildPlace>
<clerkTel>02-2685-0127</clerkTel>
<manager>심규현</manager>
<managerTel>02-2685-0127</managerTel>
<mfg>(주)나눔테크</mfg>
<model>NT280</model>
<org>철산주공12단지아파트1201동</org>
<rnum>141</rnum>
<wgs84Lat>37.4746756807</wgs84Lat>
<wgs84Lon>126.8716097544</wgs84Lon>
<zipcode1>142</zipcode1>
<zipcode2>38</zipcode2>
</item>
<item>
<buildAddress>경기도 광명시 목감로 58 (광명동, 광명해모로이연)</buildAddress>
<buildPlace>102동 승강기 앞</buildPlace>
<clerkTel>0220600544</clerkTel>
<manager>조현용</manager>
<managerTel>02-2060-0544</managerTel>
<mfg>(주)나눔테크</mfg>
<model>NT280</model>
<org>광명해모로이연아파트</org>
<rnum>142</rnum>
<wgs84Lat>37.4720322402</wgs84Lat>
<wgs84Lon>126.8485085213</wgs84Lon>
<zipcode1>142</zipcode1>
<zipcode2>95</zipcode2>
</item>
<item>
<buildAddress>경기도 광명시 목감로 58 (광명동, 광명해모로이연)</buildAddress>
<buildPlace>112동 승강기 앞</buildPlace>
<clerkTel>0220600544</clerkTel>
<manager>조현용</manager>
<managerTel>02-2060-0544</managerTel>
<mfg>(주)나눔테크</mfg>
<model>NT280</model>
<org>광명해모로이연아파트</org>
<rnum>143</rnum>
<wgs84Lat>37.4737874454</wgs84Lat>
<wgs84Lon>126.8460981442</wgs84Lon>
<zipcode1>142</zipcode1>
<zipcode2>95</zipcode2>
</item>
<item>
<buildAddress>인천광역시 남동구 백범로124번길 127 (만수동,만수주공5단지아파트)</buildAddress>
<buildPlace>만수주공5단지아파트 관리사무소 출입구</buildPlace>
<clerkTel>032-462-5557</clerkTel>
<manager>관리과장 김성봉</manager>
<managerTel>032-462-5557</managerTel>
<mfg>(주)나눔테크</mfg>
<model>HeartKeeper</model>
<org>만수주공5단지아파트</org>
<rnum>144</rnum>
<wgs84Lat>37.4604900023</wgs84Lat>
<wgs84Lon>126.7378970180</wgs84Lon>
<zipcode1>215</zipcode1>
<zipcode2>26</zipcode2>
</item>
<item>
<buildAddress>인천광역시 남동구 인주대로 899 (만수동)</buildAddress>
<buildPlace>남동구청역 발매기옆</buildPlace>
<clerkTel>0324512404</clerkTel>
<manager>배성환</manager>
<managerTel>032-451-2404</managerTel>
<mfg>㈜메디아나</mfg>
<model>Heart On A15-G4</model>
<org>인천교통공사</org>
<rnum>145</rnum>
<wgs84Lat>37.4481778534</wgs84Lat>
<wgs84Lon>126.7367533610</wgs84Lon>
<zipcode1>215</zipcode1>
<zipcode2>41</zipcode2>
</item>
<item>
<buildAddress>경기도 군포시 수리산로 33 통합관제실</buildAddress>
<buildPlace>통합관제실</buildPlace>
<clerkTel>396-5337</clerkTel>
<manager>조명성</manager>
<managerTel>396-5337</managerTel>
<mfg>(주)라디안</mfg>
<model>HR-501</model>
<org>계룡삼환아파트</org>
<rnum>146</rnum>
<wgs84Lat>37.355280797</wgs84Lat>
<wgs84Lon>126.9222627024</wgs84Lon>
<zipcode1>158</zipcode1>
<zipcode2>68</zipcode2>
</item>
<item>
<buildAddress>인천광역시 남동구 백범로294번길 15 (간석동,간석LH1단지)</buildAddress>
<buildPlace>간석LH1단지 관리사무소 입구</buildPlace>
<clerkTel>032-429-5238</clerkTel>
<manager>관리과장 안형문</manager>
<managerTel>032-429-5238</managerTel>
<mfg>(주)라디안</mfg>
<model>HR-501B</model>
<org>간석LH1단지아파트</org>
<rnum>147</rnum>
<wgs84Lat>37.4641683334</wgs84Lat>
<wgs84Lon>126.7173569686</wgs84Lon>
<zipcode1>215</zipcode1>
<zipcode2>12</zipcode2>
</item>
<item>
<buildAddress>경상북도 김천시 운동장길 1 (삼락동, 테니스장)</buildAddress>
<buildPlace>종합운동장 테니스장</buildPlace>
<clerkTel>0544207911</clerkTel>
<manager>박진호</manager>
<managerTel>054-420-7911</managerTel>
<mfg>(주)씨유메디컬시스템</mfg>
<model>I-PAD CU-SPI</model>
<org>종합운동장</org>
<rnum>148</rnum>
<wgs84Lat>36.1449243028</wgs84Lat>
<wgs84Lon>128.0880877799</wgs84Lon>
<zipcode1>395</zipcode1>
<zipcode2>24</zipcode2>
</item>
<item>
<buildAddress>울산광역시 북구 명촌로 91</buildAddress>
<buildPlace>관리사무소 내</buildPlace>
<clerkTel>052-287-7293</clerkTel>
<manager>박경진</manager>
<managerTel>052-287-7293</managerTel>
<mfg>(주)씨유메디칼시스템</mfg>
<model>저출력심장충격기I-PAD NF1200</model>
<org>평창리비에르2차아파트</org>
<rnum>149</rnum>
<wgs84Lat>35.5528308886</wgs84Lat>
<wgs84Lon>129.3547645128</wgs84Lon>
<zipcode1>442</zipcode1>
<zipcode2>56</zipcode2>
</item>
<item>
<buildAddress>경상남도 양산시 물금읍 물금로 41</buildAddress>
<buildPlace>후문경비실</buildPlace>
<manager>강정호</manager>
<managerTel>010-***-****</managerTel>
<mfg>(주)나눔테크</mfg>
<model>저출력심장충격기,Heart keeper</model>
<org>양우내안애5리버파크아파트</org>
<rnum>150</rnum>
<wgs84Lat>35.3101718066</wgs84Lat>
<wgs84Lon>128.9893902758</wgs84Lon>
<zipcode1>506</zipcode1>
<zipcode2>56</zipcode2>
</item>
<item>
<buildAddress>세종특별자치시 세종시 세종특별자치시 시청대로 236 (소담동, 새샘마을3단지)</buildAddress>
<buildPlace>후문경비실</buildPlace>
<clerkTel>044-867-9847</clerkTel>
<manager>노수철</manager>
<managerTel>010-***-****</managerTel>
<mfg>씨유메디칼시스템</mfg>
<model>CU SPI-plus</model>
<org>새샘마을3단지아파트</org>
<rnum>151</rnum>
<wgs84Lat>36.4850657515</wgs84Lat>
<wgs84Lon>127.2960480720</wgs84Lon>
<zipcode1>301</zipcode1>
<zipcode2>51</zipcode2>
</item>
<item>
<buildAddress>전라북도 전주시 완산구 용리로 179</buildAddress>
<buildPlace>관리사무소 옆 숙직실 내</buildPlace>
<clerkTel>229-1169</clerkTel>
<manager>관리소장</manager>
<managerTel>229-1169</managerTel>
<mfg>캐논코리아</mfg>
<model>canon NF1200</model>
<org>삼천세창짜임아파트</org>
<rnum>152</rnum>
<wgs84Lat>35.7999610195</wgs84Lat>
<wgs84Lon>127.1275217349</wgs84Lon>
<zipcode1>550</zipcode1>
<zipcode2>83</zipcode2>
</item>
<item>
<buildAddress>경기도 남양주시 도농로 34</buildAddress>
<buildPlace>관리동(205동앞) 2층 상황실 내부</buildPlace>
<clerkTel>031-558-2521</clerkTel>
<manager>심영보</manager>
<managerTel>031-558-2521</managerTel>
<mfg>㈜메디아나</mfg>
<model>A10M-G4-0K</model>
<org>부영그린타운2단지아파트</org>
<rnum>153</rnum>
<wgs84Lat>37.6132991466</wgs84Lat>
<wgs84Lon>127.1598706422</wgs84Lon>
<zipcode1>122</zipcode1>
<zipcode2>51</zipcode2>
</item>
<item>
<buildAddress>인천광역시 남동구 수인로 3677 (장수동)</buildAddress>
<buildPlace>인천대공원역 지상2층 대합실</buildPlace>
<clerkTel>0324512404</clerkTel>
<managerTel>032-451-2404</managerTel>
<mfg>(주)메디아나</mfg>
<model>HeartOn A15-G4</model>
<org>인천교통공사</org>
<rnum>154</rnum>
<wgs84Lat>37.4484757308</wgs84Lat>
<wgs84Lon>126.7528621376</wgs84Lon>
<zipcode1>215</zipcode1>
<zipcode2>32</zipcode2>
</item>
<item>
<buildAddress>대전광역시 유성구 원신흥로 37 도안휴먼시아10단지아파트 관리시무소</buildAddress>
<buildPlace>관리동 사무실 출입문 옆</buildPlace>
<clerkTel>042-824-2684</clerkTel>
<manager>윤용선</manager>
<managerTel>042-824-2684</managerTel>
<mfg>(주)나눔테크</mfg>
<model>NT-381</model>
<org>도안휴먼시아10단지아파트관리사무소</org>
<rnum>155</rnum>
<wgs84Lat>36.3394339238</wgs84Lat>
<wgs84Lon>127.3395678122</wgs84Lon>
<zipcode1>341</zipcode1>
<zipcode2>93</zipcode2>
</item>
<item>
<buildAddress>울산광역시 북구 동대12길 30</buildAddress>
<buildPlace>관리동 2층 관리사무소 입구</buildPlace>
<clerkTel>052-281-0418</clerkTel>
<manager>이명환</manager>
<managerTel>052-281-0418</managerTel>
<mfg>씨유메디컬시스템</mfg>
<model>저출력심장출력기 CU-SP1</model>
<org>울산호계1주공아파트</org>
<rnum>156</rnum>
<wgs84Lat>35.6311581001</wgs84Lat>
<wgs84Lon>129.3572946788</wgs84Lon>
<zipcode1>442</zipcode1>
<zipcode2>26</zipcode2>
</item>
<item>
<buildAddress>울산광역시 북구 염포로 459</buildAddress>
<buildPlace>관리동1층 입구 내부</buildPlace>
<clerkTel>052-289-5590</clerkTel>
<manager>김태경</manager>
<managerTel>052-289-5590</managerTel>
<mfg>(주)나눔테크</mfg>
<model>AK-3 HeartKeeper</model>
<org>양정힐스테이트1차아파트</org>
<rnum>157</rnum>
<wgs84Lat>35.5519814620</wgs84Lat>
<wgs84Lon>129.3831245291</wgs84Lon>
<zipcode1>442</zipcode1>
<zipcode2>58</zipcode2>
</item>
<item>
<buildAddress>경상북도 김천시 시청로 93 (신음동, 대신휴먼시아, 관리사무소 입구)</buildAddress>
<buildPlace>관리사무소 입구</buildPlace>
<clerkTel>054-430-8185</clerkTel>
<manager>김승준</manager>
<managerTel>054-430-8185</managerTel>
<mfg>씨유메디컬시스템</mfg>
<model>CU-SP1</model>
<org>주택관리공단김천대신휴먼시아아파트</org>
<rnum>158</rnum>
<wgs84Lat>36.1369510560</wgs84Lat>
<wgs84Lon>128.1162625863</wgs84Lon>
<zipcode1>395</zipcode1>
<zipcode2>46</zipcode2>
</item>
<item>
<buildAddress>경기도 안양시 동안구 경수대로 462 (호계동,호계2차현대홈타운)</buildAddress>
<buildPlace>관리사무소(1층 상황실)</buildPlace>
<clerkTel>031-427-1861</clerkTel>
<manager>차승현</manager>
<managerTel>010-***-****</managerTel>
<mfg>라디안</mfg>
<model>HR-501</model>
<org>호계2차현대홈타운</org>
<rnum>159</rnum>
<wgs84Lat>37.3651096879</wgs84Lat>
<wgs84Lon>126.9605200770</wgs84Lon>
<zipcode1>141</zipcode1>
<zipcode2>25</zipcode2>
</item>
<item>
<buildAddress>부산광역시 해운대구 대천로103번길 61</buildAddress>
<buildPlace>118동 경비실</buildPlace>
<clerkTel>051-701-9198</clerkTel>
<manager>전정식</manager>
<managerTel>051-701-9198</managerTel>
<mfg>(주)라디안</mfg>
<model>HR-501-B</model>
<org>해운대LG아파트</org>
<rnum>160</rnum>
<wgs84Lat>35.1806675891</wgs84Lat>
<wgs84Lon>129.1738662465</wgs84Lon>
<zipcode1>480</zipcode1>
<zipcode2>75</zipcode2>
</item>
<item>
<buildAddress>충청남도 아산시 염치읍 현충사길 126</buildAddress>
<buildPlace>현충사관리소</buildPlace>
<clerkTel>041-539-4610</clerkTel>
<manager>한정호</manager>
<managerTel>041-539-4605</managerTel>
<mfg>(주)메디아나</mfg>
<model>Heart On A15</model>
<org>현충사관리소</org>
<rnum>161</rnum>
<wgs84Lat>36.8302139271</wgs84Lat>
<wgs84Lon>126.9340068063</wgs84Lon>
<zipcode1>314</zipcode1>
<zipcode2>51</zipcode2>
</item>
<item>
<buildAddress>경기도 의정부시 범골로29번길 34 602동 경비실</buildAddress>
<buildPlace>신도6차아파트 602동 경비실</buildPlace>
<clerkTel>031-878-3083</clerkTel>
<manager>유현철</manager>
<managerTel>031-878-3083</managerTel>
<mfg>나눔테크</mfg>
<model>Heart Saver A</model>
<org>신도6차아파트</org>
<rnum>162</rnum>
<wgs84Lat>37.7266377836</wgs84Lat>
<wgs84Lon>127.0395519403</wgs84Lon>
<zipcode1>116</zipcode1>
<zipcode2>34</zipcode2>
</item>
<item>
<buildAddress>서울특별시 양천구 중앙로36길 15 (신정동, 목동힐스테이트)</buildAddress>
<buildPlace>동문경비실 지상1층(114동 앞)</buildPlace>
<clerkTel>2655-0934</clerkTel>
<manager>전기성</manager>
<managerTel>2655-0934</managerTel>
<mfg>(주)메디아나</mfg>
<model>A15-G4</model>
<org>목동힐스테이트아파트</org>
<rnum>163</rnum>
<wgs84Lat>37.5207747014</wgs84Lat>
<wgs84Lon>126.8559472731</wgs84Lon>
<zipcode1>080</zipcode1>
<zipcode2>83</zipcode2>
</item>
<item>
<buildAddress>경기도 화성시 우정읍 기아자동차로 189</buildAddress>
<buildPlace>메인리틀구장 1층 기록실 앞</buildPlace>
<clerkTel>031-351-9027</clerkTel>
<manager>정영준</manager>
<managerTel>010-***-****</managerTel>
<mfg>라디안</mfg>
<model>HR501</model>
<org>화성드림파크</org>
<rnum>164</rnum>
<wgs84Lat>37.0449421610</wgs84Lat>
<wgs84Lon>126.7577319880</wgs84Lon>
<zipcode1>185</zipcode1>
<zipcode2>70</zipcode2>
</item>
<item>
<buildAddress>대전광역시 유성구 노은로 353 (하기동, 송림마을아파트3단지 관리사무소)</buildAddress>
<buildPlace>관리동 2층 사무실 내부 출입문 옆</buildPlace>
<clerkTel>042-826-8222</clerkTel>
<manager>박영만</manager>
<managerTel>042-826-8222</managerTel>
<mfg>(주)라디안</mfg>
<model>HR-501-B</model>
<org>송림마을3단지아파트관리사무소</org>
<rnum>165</rnum>
<wgs84Lat>36.3909721541</wgs84Lat>
<wgs84Lon>127.3224623238</wgs84Lon>
<zipcode1>340</zipcode1>
<zipcode2>61</zipcode2>
</item>
<item>
<buildAddress>부산광역시 해운대구 대천로103번길 61</buildAddress>
<buildPlace>122동 경비실</buildPlace>
<clerkTel>051-701-9198</clerkTel>
<manager>전정식</manager>
<managerTel>051-701-9198</managerTel>
<mfg>(주)라디안</mfg>
<model>HR-501-B</model>
<org>해운대LG아파트</org>
<rnum>166</rnum>
<wgs84Lat>35.1806675891</wgs84Lat>
<wgs84Lon>129.1738662465</wgs84Lon>
<zipcode1>480</zipcode1>
<zipcode2>75</zipcode2>
</item>
<item>
<buildAddress>전라북도 익산시 무왕로22길 12 관리사무소</buildAddress>
<buildPlace>관리동 로비</buildPlace>
<clerkTel>063-831-0875</clerkTel>
<manager>김영남</manager>
<managerTel>063-831-0875</managerTel>
<mfg>(주)나눔테크</mfg>
<model>NT-381</model>
<org>익산부송주공1단지아파트</org>
<rnum>167</rnum>
<wgs84Lat>35.9584426851</wgs84Lat>
<wgs84Lon>126.9859795320</wgs84Lon>
<zipcode1>545</zipcode1>
<zipcode2>63</zipcode2>
</item>
<item>
<buildAddress>전라북도 전주시 완산구 홍산로 390</buildAddress>
<buildPlace>관리사무소 입구</buildPlace>
<clerkTel>228-2552</clerkTel>
<manager>김순옥</manager>
<managerTel>228-2552</managerTel>
<mfg>나눔테크</mfg>
<model>HeartSaver NT-285</model>
<org>서부신시가지아이파크아파트</org>
<rnum>168</rnum>
<wgs84Lat>35.8272787722</wgs84Lat>
<wgs84Lon>127.1066225139</wgs84Lon>
<zipcode1>549</zipcode1>
<zipcode2>55</zipcode2>
</item>
<item>
<buildAddress>경기도 안양시 동안구 흥안대로223번길 47 (호계동,샘마을대우,한양아파트)</buildAddress>
<buildPlace>대우통제실</buildPlace>
<clerkTel>031-341-2141</clerkTel>
<manager>이대연</manager>
<managerTel>010-***-****</managerTel>
<mfg>라디안</mfg>
<model>HR-501</model>
<org>샘마을한양대우아파트</org>
<rnum>169</rnum>
<wgs84Lat>37.3761271345</wgs84Lat>
<wgs84Lon>126.9653194705</wgs84Lon>
<zipcode1>141</zipcode1>
<zipcode2>06</zipcode2>
</item>
<item>
<buildAddress>인천광역시 남동구 만수서로 55 (만수동,향촌휴먼시아1단지아파트)</buildAddress>
<buildPlace>향촌휴먼시아1단지아파트관리사무소 입구 안</buildPlace>
<clerkTel>032-472-1735</clerkTel>
<manager>관리부장 최희철</manager>
<managerTel>032-472-1735</managerTel>
<mfg>(주)씨유메디칼시스템</mfg>
<model>CU-SP1 Plus</model>
<org>향촌휴먼시아1단지아파트</org>
<rnum>170</rnum>
<wgs84Lat>37.4637268502</wgs84Lat>
<wgs84Lon>126.7312652801</wgs84Lon>
<zipcode1>215</zipcode1>
<zipcode2>23</zipcode2>
</item>
<item>
<buildAddress>경상남도 김해시 율하3로 76 (율하동, 신리마을 중앙하이츠아파트)</buildAddress>
<buildPlace>생활지원센터 입구측</buildPlace>
<clerkTel>055-326-1046</clerkTel>
<manager>권혁석</manager>
<managerTel>055</managerTel>
<mfg>(주)나눔테크</mfg>
<model>Heart Saver-A</model>
<org>신리마을중앙하이츠</org>
<rnum>171</rnum>
<wgs84Lat>35.1735451225</wgs84Lat>
<wgs84Lon>128.8187929216</wgs84Lon>
<zipcode1>510</zipcode1>
<zipcode2>15</zipcode2>
</item>
<item>
<buildAddress>인천광역시 계양구 주부토로 559, 계산2동주민센터 (계산동)</buildAddress>
<buildPlace>1층 민원실내</buildPlace>
<clerkTel>032-450-4764</clerkTel>
<manager>주민센터 시설관리자</manager>
<managerTel>450-4764</managerTel>
<mfg>(주)라디안</mfg>
<model>HR-501</model>
<org>계산2동주민센터</org>
<rnum>172</rnum>
<wgs84Lat>37.5442098915</wgs84Lat>
<wgs84Lon>126.7281398247</wgs84Lon>
<zipcode1>210</zipcode1>
<zipcode2>40</zipcode2>
</item>
<item>
<buildAddress>경기도 화성시 경기대로1010번길 11</buildAddress>
<buildPlace>1층 민원실 내 정보통신실 입구</buildPlace>
<clerkTel>031-369-4795</clerkTel>
<manager>이재진</manager>
<managerTel>010-***-****</managerTel>
<mfg>라디안</mfg>
<model>HR501</model>
<org>병점1동주민센터</org>
<rnum>173</rnum>
<wgs84Lat>37.2068704264</wgs84Lat>
<wgs84Lon>127.0372738751</wgs84Lon>
<zipcode1>184</zipcode1>
<zipcode2>11</zipcode2>
</item>
<item>
<buildAddress>경기도 의정부시 녹양로 86-15 105동 경비실</buildAddress>
<buildPlace>녹양현대아파트 105동 경비실</buildPlace>
<clerkTel>031-875-1560</clerkTel>
<manager>박응식</manager>
<managerTel>031-875-1560</managerTel>
<mfg>(주)나눔테크</mfg>
<model>Heart Saver A</model>
<org>녹양현대아파트</org>
<rnum>174</rnum>
<wgs84Lat>37.7589694167</wgs84Lat>
<wgs84Lon>127.0355836358</wgs84Lon>
<zipcode1>116</zipcode1>
<zipcode2>12</zipcode2>
</item>
<item>
<buildAddress>충청북도 청주시 청원구 율량로 135</buildAddress>
<buildPlace>정문보안실</buildPlace>
<clerkTel>043-215-9757</clerkTel>
<manager>김현기</manager>
<managerTel>043-215-9757</managerTel>
<mfg>(주)메디아나</mfg>
<model>ON A15-GA</model>
<org>율량대원칸타빌3차아파트</org>
<rnum>175</rnum>
<wgs84Lat>36.6719990566</wgs84Lat>
<wgs84Lon>127.5007110342</wgs84Lon>
<zipcode1>283</zipcode1>
<zipcode2>17</zipcode2>
</item>
<item>
<buildAddress>광주광역시 서구 풍암순환로 86</buildAddress>
<buildPlace>관리사무소</buildPlace>
<clerkTel>062-681-7886</clerkTel>
<manager>이득재</manager>
<managerTel>062-681-7886</managerTel>
<mfg>(주)나눔테크</mfg>
<model>Heart Plus</model>
<org>삼능남양아파트</org>
<rnum>176</rnum>
<wgs84Lat>35.1207707652</wgs84Lat>
<wgs84Lon>126.8798558844</wgs84Lon>
<zipcode1>620</zipcode1>
<zipcode2>66</zipcode2>
</item>
<item>
<buildAddress>울산광역시 남구 문수로369번길 58 도성아파트</buildAddress>
<buildPlace>경비실입구</buildPlace>
<clerkTel>052-274-2981</clerkTel>
<manager>김세동</manager>
<managerTel>052-274-2981</managerTel>
<mfg>한국메디아나</mfg>
<model>T-10</model>
<org>도성아파트</org>
<rnum>177</rnum>
<wgs84Lat>35.5376454464</wgs84Lat>
<wgs84Lon>129.2965283437</wgs84Lon>
<zipcode1>446</zipcode1>
<zipcode2>48</zipcode2>
</item>
<item>
<buildAddress>경기도 안양시 동안구 안양천동로 162 (비산동,비산힐스테이트아파트)</buildAddress>
<buildPlace>101동 승강장</buildPlace>
<clerkTel>031-447-2700</clerkTel>
<managerTel>031-447-2700</managerTel>
<mfg>나눔테크</mfg>
<model>Heart Pro NT-280</model>
<org>비산힐스테이트아파트</org>
<rnum>178</rnum>
<wgs84Lat>37.3941402472</wgs84Lat>
<wgs84Lon>126.9410413056</wgs84Lon>
<zipcode1>140</zipcode1>
<zipcode2>39</zipcode2>
</item>
<item>
<buildAddress>경기도 안양시 동안구 귀인로 237 (평촌동,초원대림아파트)</buildAddress>
<buildPlace>관리동입구1층</buildPlace>
<clerkTel>031-387-4364</clerkTel>
<manager>이석배</manager>
<managerTel>010-***-****</managerTel>
<mfg>나눔테크</mfg>
<model>Heart Saver-A</model>
<org>초원대림아파트</org>
<rnum>179</rnum>
<wgs84Lat>37.3881281525</wgs84Lat>
<wgs84Lon>126.9632565161</wgs84Lon>
<zipcode1>140</zipcode1>
<zipcode2>70</zipcode2>
</item>
<item>
<buildAddress>울산광역시 남구 중앙로290번길 53 강변 센트럴하이츠</buildAddress>
<buildPlace>정문 초소 안</buildPlace>
<clerkTel>052-256-0215</clerkTel>
<manager>김민국</manager>
<managerTel>010-***-****</managerTel>
<mfg>니혼코덴코리아</mfg>
<model>AED-2100K</model>
<org>강변센트럴하이츠</org>
<rnum>180</rnum>
<wgs84Lat>35.5481365184</wgs84Lat>
<wgs84Lon>129.3148520184</wgs84Lon>
<zipcode1>446</zipcode1>
<zipcode2>80</zipcode2>
</item>
<item>
<buildAddress>경기도 광명시 목감로 58 (광명동, 광명해모로이연)</buildAddress>
<buildPlace>110동 승강기 앞</buildPlace>
<clerkTel>0220600544</clerkTel>
<manager>조현용</manager>
<managerTel>02-2060-0544</managerTel>
<mfg>(주)나눔테크</mfg>
<model>NT280</model>
<org>광명해모로이연아파트</org>
<rnum>181</rnum>
<wgs84Lat>37.4737874454</wgs84Lat>
<wgs84Lon>126.8460981442</wgs84Lon>
<zipcode1>142</zipcode1>
<zipcode2>95</zipcode2>
</item>
<item>
<buildAddress>울산광역시 북구 천곡길 199</buildAddress>
<buildPlace>102동 1호 출입구 승강기 앞</buildPlace>
<clerkTel>052-285-0493</clerkTel>
<manager>박제환</manager>
<managerTel>052-285-0493</managerTel>
<mfg>RADIAN</mfg>
<model>HR-501</model>
<org>우방아파트</org>
<rnum>182</rnum>
<wgs84Lat>35.6379932163</wgs84Lat>
<wgs84Lon>129.3247752810</wgs84Lon>
<zipcode1>442</zipcode1>
<zipcode2>02</zipcode2>
</item>
<item>
<buildAddress>울산광역시 북구 신천로 105</buildAddress>
<buildPlace>관리사무소</buildPlace>
<clerkTel>052-291-3224</clerkTel>
<manager>임정희</manager>
<managerTel>052-291-3224</managerTel>
<mfg>(주)나눔테크</mfg>
<model>Heartsaver-A</model>
<org>오토밸리로효성해링턴플레이스아파트</org>
<rnum>183</rnum>
<wgs84Lat>35.6470596422</wgs84Lat>
<wgs84Lon>129.3530593859</wgs84Lon>
<zipcode1>442</zipcode1>
<zipcode2>15</zipcode2>
</item>
<item>
<buildAddress>대구광역시 동구 동부로 26</buildAddress>
<buildPlace>관리사무소</buildPlace>
<clerkTel>053-422-8711</clerkTel>
<manager>김성화</manager>
<managerTel>053-422-8711</managerTel>
<mfg>(주)나눔테크</mfg>
<model>HeartSaver-A</model>
<org>신천휴먼시아5단지</org>
<rnum>184</rnum>
<wgs84Lat>35.8737908496</wgs84Lat>
<wgs84Lon>128.6151591793</wgs84Lon>
<zipcode1>412</zipcode1>
<zipcode2>65</zipcode2>
</item>
<item>
<buildAddress>대구광역시 동구 안심로 402</buildAddress>
<buildPlace>관리동 2층 관리사무소</buildPlace>
<clerkTel>053-961-7735</clerkTel>
<manager>이은숙</manager>
<managerTel>053-961-7735</managerTel>
<mfg>(주)씨유메디칼시스템</mfg>
<model>NF1200</model>
<org>영조아름다운나날1단지</org>
<rnum>185</rnum>
<wgs84Lat>35.8685537814</wgs84Lat>
<wgs84Lon>128.7294461980</wgs84Lon>
<zipcode1>410</zipcode1>
<zipcode2>88</zipcode2>
</item>
<item>
<buildAddress>대구광역시 동구 팔공로53길 10</buildAddress>
<buildPlace>정문 경비실</buildPlace>
<clerkTel>053-981-8814</clerkTel>
<manager>김정미</manager>
<managerTel>053-981-8814</managerTel>
<mfg>(주)나눔테크</mfg>
<model>HeartPlus NT-180</model>
<org>이시아폴리스더샵1차</org>
<rnum>186</rnum>
<wgs84Lat>35.9252459637</wgs84Lat>
<wgs84Lon>128.6397315907</wgs84Lon>
<zipcode1>410</zipcode1>
<zipcode2>23</zipcode2>
</item>
<item>
<buildAddress>대전광역시 중구 태평로 65 태평아파트 3단지</buildAddress>
<buildPlace>관리사무소 내</buildPlace>
<clerkTel>042-523-9042</clerkTel>
<manager>이춘옥</manager>
<managerTel>010-***-****</managerTel>
<mfg>(주)라디안</mfg>
<model>Heart Guardian HR-501-B</model>
<org>삼부3단지아파트</org>
<rnum>187</rnum>
<wgs84Lat>36.3232807887</wgs84Lat>
<wgs84Lon>127.3923849647</wgs84Lon>
<zipcode1>348</zipcode1>
<zipcode2>85</zipcode2>
</item>
<item>
<buildAddress>울산광역시 북구 강동산하5로 66</buildAddress>
<buildPlace>경비실 내</buildPlace>
<clerkTel>052-292-1163</clerkTel>
<manager>신현우</manager>
<managerTel>052-292-1163</managerTel>
<mfg>(주)나눔테크</mfg>
<model>Heart saver-A</model>
<org>블루마시티푸르지오1차아파트</org>
<rnum>188</rnum>
<wgs84Lat>35.6387317028</wgs84Lat>
<wgs84Lon>129.4356286318</wgs84Lon>
<zipcode1>442</zipcode1>
<zipcode2>64</zipcode2>
</item>
<item>
<buildAddress>광주광역시 남구 덕남길 100</buildAddress>
<buildPlace>병원 1층 로비</buildPlace>
<clerkTel>062-612-9800</clerkTel>
<manager>선홍준</manager>
<managerTel>062-612-9800</managerTel>
<mfg>(주)나눔테크</mfg>
<model>HeartKeeper</model>
<rnum>189</rnum>
<wgs84Lat>35.0938830928</wgs84Lat>
<wgs84Lon>126.897648482</wgs84Lon>
<zipcode1>617</zipcode1>
<zipcode2>48</zipcode2>
</item>
<item>
<buildAddress>인천광역시 강화군 불은면 고려왕릉로 419</buildAddress>
<buildPlace>본관1층 중앙</buildPlace>
<clerkTel>032-930-5516</clerkTel>
<manager>장영수</manager>
<managerTel>032-930-5516</managerTel>
<mfg>씨유메디컬</mfg>
<model>I-PAD NFK200</model>
<org>경기도학생교육원</org>
<rnum>190</rnum>
<wgs84Lat>37.6768624568</wgs84Lat>
<wgs84Lon>126.4773329602</wgs84Lon>
<zipcode1>230</zipcode1>
<zipcode2>46</zipcode2>
</item>
<item>
<buildAddress>전라북도 전주시 완산구 소대배기로 33</buildAddress>
<buildPlace>105동 앞 안전관리실 내</buildPlace>
<clerkTel>227-3380</clerkTel>
<manager>강원균</manager>
<managerTel>227-3380</managerTel>
<mfg>씨유메디칼시스템</mfg>
<model>I-PAD NF1200</model>
<org>평화현대아파트</org>
<rnum>191</rnum>
<wgs84Lat>35.7878228153</wgs84Lat>
<wgs84Lon>127.134130319</wgs84Lon>
<zipcode1>551</zipcode1>
<zipcode2>23</zipcode2>
</item>
<item>
<buildAddress>제주특별자치도 제주시 임항로 191</buildAddress>
<buildPlace>연안대합실 해운조합사무실 앞</buildPlace>
<clerkTel>064-720-8594</clerkTel>
<manager>한대욱</manager>
<managerTel>064-720-8594</managerTel>
<mfg>(주)씨유메디칼시스템</mfg>
<model>NFK200</model>
<org>국제여객터미널(한국해운조합)</org>
<rnum>192</rnum>
<wgs84Lat>33.5253013899</wgs84Lat>
<wgs84Lon>126.5436396483</wgs84Lon>
<zipcode1>632</zipcode1>
<zipcode2>80</zipcode2>
</item>
<item>
<buildAddress>충청남도 논산시 대화로 143</buildAddress>
<buildPlace>관리사무소 입구</buildPlace>
<clerkTel>041-733-5480</clerkTel>
<manager>조현식</manager>
<managerTel>010-***-****</managerTel>
<mfg>(주)나눔테크</mfg>
<model>NT-381</model>
<org>논산대교휴먼시아</org>
<rnum>193</rnum>
<wgs84Lat>36.2124411392</wgs84Lat>
<wgs84Lon>127.0914088657</wgs84Lon>
<zipcode1>329</zipcode1>
<zipcode2>47</zipcode2>
</item>
<item>
<buildAddress>충청남도 보령시 오천면 오천중앙로 264</buildAddress>
<buildPlace>교성보건진료소 옥외</buildPlace>
<clerkTel>0419324580</clerkTel>
<manager>김혜옥</manager>
<managerTel>041-932-4580</managerTel>
<mfg>필립스</mfg>
<model>US/Heartstart FRx</model>
<org>교성보건진료소</org>
<rnum>194</rnum>
<wgs84Lat>36.4218146578</wgs84Lat>
<wgs84Lon>126.5408411146</wgs84Lon>
<zipcode1>334</zipcode1>
<zipcode2>13</zipcode2>
</item>
<item>
<buildAddress>충청남도 보령시 주교면 울계큰길 374</buildAddress>
<buildPlace>주교보건지소 옥외</buildPlace>
<clerkTel>0419325236</clerkTel>
<manager>박화란</manager>
<managerTel>041-932-5236</managerTel>
<mfg>씨유메디칼</mfg>
<model>NFK-200</model>
<org>주교보건지소</org>
<rnum>195</rnum>
<wgs84Lat>36.3896427605</wgs84Lat>
<wgs84Lon>126.5697957817</wgs84Lon>
<zipcode1>334</zipcode1>
<zipcode2>15</zipcode2>
</item>
<item>
<buildAddress>광주광역시 서구 하남대로680번길 10</buildAddress>
<buildPlace>정문 경비실</buildPlace>
<clerkTel>062-513-3154</clerkTel>
<manager>최준용</manager>
<managerTel>062-513-3154</managerTel>
<mfg>(주)나눔테크</mfg>
<model>Heart Plus NT-180</model>
<org>동천호반베르디움</org>
<rnum>196</rnum>
<wgs84Lat>35.1707303833</wgs84Lat>
<wgs84Lon>126.865178424</wgs84Lon>
<zipcode1>619</zipcode1>
<zipcode2>03</zipcode2>
</item>
<item>
<buildAddress>제주특별자치도 제주시 화삼로 166</buildAddress>
<buildPlace>관리동 관리사무소 내</buildPlace>
<clerkTel>064-702-3457</clerkTel>
<manager>이상민</manager>
<managerTel>064-702-3457</managerTel>
<mfg>(주)메디아나</mfg>
<model>HeartOn A10</model>
<org>제주삼화부영5차아파트</org>
<rnum>197</rnum>
<wgs84Lat>33.5187420399</wgs84Lat>
<wgs84Lon>126.5872488494</wgs84Lon>
<zipcode1>633</zipcode1>
<zipcode2>22</zipcode2>
</item>
<item>
<buildAddress>경상남도 양산시 물금읍 새실로 54</buildAddress>
<buildPlace>관리사무소 출입구</buildPlace>
<clerkTel>055-389-0500</clerkTel>
<manager>김권일</manager>
<managerTel>055-389-0500</managerTel>
<mfg>(주)메디아나</mfg>
<model>Heart On A15</model>
<org>양산신도시LH5단지</org>
<rnum>198</rnum>
<wgs84Lat>35.3125691252</wgs84Lat>
<wgs84Lon>128.9952802565</wgs84Lon>
<zipcode1>506</zipcode1>
<zipcode2>55</zipcode2>
</item>
<item>
<buildAddress>전라북도 익산시 함열읍 함열5길 28</buildAddress>
<buildPlace>관리동 1층</buildPlace>
<clerkTel>063-862-1941</clerkTel>
<manager>관리소장</manager>
<managerTel>063-862-1941</managerTel>
<mfg>(주)나눔테크</mfg>
<model>NT-381</model>
<org>함열휴먼시아1단지아파트</org>
<rnum>199</rnum>
<wgs84Lat>36.0759800671</wgs84Lat>
<wgs84Lon>126.9633158794</wgs84Lon>
<zipcode1>545</zipcode1>
<zipcode2>11</zipcode2>
</item>
<item>
<buildAddress>경상남도 양산시 물금읍 금오로 20</buildAddress>
<buildPlace>재활병원 2층 - 열전기치료실 입구 벽면</buildPlace>
<clerkTel>055-360-1923</clerkTel>
<manager>담당자</manager>
<managerTel>055-360-1923</managerTel>
<mfg>필립스</mfg>
<model>하트스타트 FRx AED</model>
<org>양산부산대학교병원</org>
<rnum>200</rnum>
<wgs84Lat>35.3269235558</wgs84Lat>
<wgs84Lon>129.0072008398</wgs84Lon>
<zipcode1>506</zipcode1>
<zipcode2>12</zipcode2>
</item>
<item>
<buildAddress>제주특별자치도 서귀포시 대정읍 에듀시티로 148</buildAddress>
<buildPlace>아파트 정문입구</buildPlace>
<clerkTel>064-792-6556</clerkTel>
<manager>정상성</manager>
<managerTel>064-792-6556</managerTel>
<mfg>cardiac science</mfg>
<model>G3 Plus AUTO 9390A</model>
<org>삼정지에듀</org>
<rnum>201</rnum>
<wgs84Lat>33.2840884496</wgs84Lat>
<wgs84Lon>126.2742564785</wgs84Lon>
<zipcode1>636</zipcode1>
<zipcode2>44</zipcode2>
</item>
<item>
<buildAddress>경기도 평택시 안중읍 안현로서7길 46 관리사무소</buildAddress>
<buildPlace>관리사무소 1층 현관 옆</buildPlace>
<clerkTel>031-684-0101</clerkTel>
<manager>이철호</manager>
<managerTel>031-684-0101</managerTel>
<mfg>(주)라디안</mfg>
<model>Heart Guardian HR-501B</model>
<org>안중주공2단지아파트</org>
<rnum>202</rnum>
<wgs84Lat>36.9818648928</wgs84Lat>
<wgs84Lon>126.9221500517</wgs84Lon>
<zipcode1>179</zipcode1>
<zipcode2>39</zipcode2>
</item>
<item>
<buildAddress>경기도 평택시 포승읍 여술로 74 관리사무소</buildAddress>
<buildPlace>모아미래도아파트 1차 관리사무소 2층</buildPlace>
<clerkTel>031-684-9917</clerkTel>
<manager>임재흥</manager>
<managerTel>031-684-9917</managerTel>
<mfg>(주)나눔테크</mfg>
<model>Heart Saver-A</model>
<org>모아미래도아파트1차</org>
<rnum>203</rnum>
<wgs84Lat>36.9898116514</wgs84Lat>
<wgs84Lon>126.8499633383</wgs84Lon>
<zipcode1>179</zipcode1>
<zipcode2>54</zipcode2>
</item>
<item>
<buildAddress>서울특별시 동작구 보라매로5길 20 보라매병원 (신대방동)</buildAddress>
<buildPlace>1층민원안내</buildPlace>
<clerkTel>02-870-1234</clerkTel>
<manager>오상훈</manager>
<managerTel>02-870-2662</managerTel>
<mfg>씨유메디컬</mfg>
<model>NFK200</model>
<org>서울특별시보라매병원</org>
<rnum>204</rnum>
<wgs84Lat>37.4933675949</wgs84Lat>
<wgs84Lon>126.9238903687</wgs84Lon>
<zipcode1>070</zipcode1>
<zipcode2>61</zipcode2>
</item>
<item>
<buildAddress>경기도 광명시 목감로 58 (광명동, 광명해모로이연)</buildAddress>
<buildPlace>106동 승강기 앞</buildPlace>
<clerkTel>0220600544</clerkTel>
<manager>조현용</manager>
<managerTel>02-2060-0544</managerTel>
<mfg>(주)나눔테크</mfg>
<model>NT280</model>
<org>광명해모로이연아파트</org>
<rnum>205</rnum>
<wgs84Lat>37.4737874454</wgs84Lat>
<wgs84Lon>126.8460981442</wgs84Lon>
<zipcode1>142</zipcode1>
<zipcode2>95</zipcode2>
</item>
<item>
<buildAddress>충청북도 청주시 서원구 남이면 2순환로 1717 청주가마힐데스하임</buildAddress>
<buildPlace>관리실입구</buildPlace>
<clerkTel>043-298-9277</clerkTel>
<manager>장기선</manager>
<managerTel>043-298-9277</managerTel>
<mfg>(주)라디안</mfg>
<model>HR-501-B</model>
<org>가마힐데스하임</org>
<rnum>206</rnum>
<wgs84Lat>36.5985157016</wgs84Lat>
<wgs84Lon>127.4701771290</wgs84Lon>
<zipcode1>286</zipcode1>
<zipcode2>33</zipcode2>
</item>
<item>
<buildAddress>울산광역시 북구 강동산하2로 43</buildAddress>
<buildPlace>관리사무소 앞</buildPlace>
<clerkTel>052-293-1280</clerkTel>
<manager>안옥희</manager>
<managerTel>052-293-1280</managerTel>
<mfg>(주)나눔테크</mfg>
<model>저출력심장충격기 HeartSaver-A</model>
<org>블루마시티푸르지오2차아파트</org>
<rnum>207</rnum>
<wgs84Lat>35.6251725676</wgs84Lat>
<wgs84Lon>129.4377906292</wgs84Lon>
<zipcode1>442</zipcode1>
<zipcode2>64</zipcode2>
</item>
<item>
<buildAddress>경상북도 경산시 하양읍 대경로 425-41</buildAddress>
<buildPlace>장비보관실</buildPlace>
<clerkTel>053-750-1723</clerkTel>
<manager>이진경</manager>
<managerTel>053-750-5119</managerTel>
<mfg>니혼코덴코리아</mfg>
<model>심장제세동기(AED)</model>
<org>국군대구병원</org>
<rnum>208</rnum>
<wgs84Lat>35.9012625952</wgs84Lat>
<wgs84Lon>128.7881456617</wgs84Lon>
<zipcode1>384</zipcode1>
<zipcode2>27</zipcode2>
</item>
<item>
<buildAddress>경상북도 경산시 진량읍 금호강변로 830-3 (진량 휴먼시아)</buildAddress>
<buildPlace>102동 입구</buildPlace>
<clerkTel>053-857-0258</clerkTel>
<manager>도영숙</manager>
<managerTel>053-857-0258</managerTel>
<mfg>씨유메디컬시스템</mfg>
<model>CU-SP1</model>
<org>경산진량휴먼시아관리실</org>
<rnum>209</rnum>
<wgs84Lat>35.9064369387</wgs84Lat>
<wgs84Lon>128.8220531833</wgs84Lon>
<zipcode1>384</zipcode1>
<zipcode2>40</zipcode2>
</item>
<item>
<buildAddress>충청남도 아산시 시민로 456 민원봉사과</buildAddress>
<buildPlace>민원봉사과 1층</buildPlace>
<clerkTel>041-540-2321</clerkTel>
<manager>김정선</manager>
<managerTel>041-540-2321</managerTel>
<mfg>필립스</mfg>
<model>861304</model>
<org>아산시청민원봉사과</org>
<rnum>210</rnum>
<wgs84Lat>36.7902553264</wgs84Lat>
<wgs84Lon>127.0019091246</wgs84Lon>
<zipcode1>336</zipcode1>
<zipcode2>701</zipcode2>
</item>
<item>
<buildAddress>경기도 파주시 쇠재로 133 쇠재마을5단지 관리사무소</buildAddress>
<buildPlace>파주시 쇠재로 133, 516동 앞</buildPlace>
<clerkTel>031-942-3613</clerkTel>
<manager>송성자</manager>
<managerTel>031-942-3613</managerTel>
<mfg>(주)나눔테크</mfg>
<model>Heartsaver-A</model>
<org>쇠재마을5단지</org>
<rnum>211</rnum>
<wgs84Lat>37.7529807645</wgs84Lat>
<wgs84Lon>126.7757054771</wgs84Lon>
<zipcode1>109</zipcode1>
<zipcode2>19</zipcode2>
</item>
<item>
<buildAddress>전라남도 나주시 가마태길 38 나주용산1차 주공아파트</buildAddress>
<buildPlace>관리사무소 앞</buildPlace>
<clerkTel>061-335-6111</clerkTel>
<manager>신성식</manager>
<managerTel>010-***-****</managerTel>
<mfg>나눔테크</mfg>
<model>ReHeart NT-381</model>
<org>나주용산주공1단지아파트</org>
<rnum>212</rnum>
<wgs84Lat>34.9943886951</wgs84Lat>
<wgs84Lon>126.7207149089</wgs84Lon>
<zipcode1>582</zipcode1>
<zipcode2>72</zipcode2>
</item>
<item>
<buildAddress>전라북도 전주시 덕진구 출판로 87</buildAddress>
<buildPlace>관리사무소 출입구 벽면</buildPlace>
<clerkTel>212-0731</clerkTel>
<manager>국정남</manager>
<managerTel>212-0731</managerTel>
<mfg>오맥스</mfg>
<model>HeartPlus NT-180</model>
<org>호반베르디움더클래스</org>
<rnum>213</rnum>
<wgs84Lat>35.8397833154</wgs84Lat>
<wgs84Lon>127.0623427461</wgs84Lon>
<zipcode1>548</zipcode1>
<zipcode2>66</zipcode2>
</item>
<item>
<buildAddress>부산광역시 동구 초량중로 131</buildAddress>
<buildPlace>사무실</buildPlace>
<clerkTel>051-462-2017</clerkTel>
<manager>박상일</manager>
<managerTel>051-462-2017</managerTel>
<mfg>메디아나</mfg>
<model>Heart On A15</model>
<org>동구쪽방상담소</org>
<rnum>214</rnum>
<wgs84Lat>35.1232512178</wgs84Lat>
<wgs84Lon>129.0414216701</wgs84Lon>
<zipcode1>487</zipcode1>
<zipcode2>94</zipcode2>
</item>
<item>
<buildAddress>부산광역시 동구 중앙대로 지하 200</buildAddress>
<buildPlace>역무실</buildPlace>
<clerkTel>051-678-6113</clerkTel>
<manager>이채슬</manager>
<managerTel>051-678-6113</managerTel>
<mfg>메디아나</mfg>
<model>Heart On A15</model>
<org>부산교통공사부산역</org>
<rnum>215</rnum>
<wgs84Lat>35.1144377792</wgs84Lat>
<wgs84Lon>129.0392802678</wgs84Lon>
<zipcode1>487</zipcode1>
<zipcode2>60</zipcode2>
</item>
<item>
<buildAddress>울산광역시 중구 백양로 34</buildAddress>
<buildPlace>성안동주민센터 내</buildPlace>
<clerkTel>052-290-4600</clerkTel>
<manager>김수진</manager>
<managerTel>052-290-4600</managerTel>
<mfg>Heartsine technologies</mfg>
<model>Samaritan PAD SAM 350P</model>
<org>성안동주민센터</org>
<rnum>216</rnum>
<wgs84Lat>35.5745230222</wgs84Lat>
<wgs84Lon>129.3098469761</wgs84Lon>
<zipcode1>444</zipcode1>
<zipcode2>26</zipcode2>
</item>
<item>
<buildAddress>경기도 용인시 처인구 한터로152번길 62 (고림동, 예진마을인정피렌체빌리지III아파트)</buildAddress>
<buildPlace>정문 경비초소 앞</buildPlace>
<clerkTel>031-321-2514</clerkTel>
<manager>강태선</manager>
<managerTel>031-321-2514</managerTel>
<mfg>나눔테크</mfg>
<model>저출력심장충격기</model>
<org>예진피렌체1차아파트</org>
<rnum>217</rnum>
<wgs84Lat>37.2466290596</wgs84Lat>
<wgs84Lon>127.2307981312</wgs84Lon>
<zipcode1>171</zipcode1>
<zipcode2>49</zipcode2>
</item>
<item>
<buildAddress>충청북도 진천군 진천읍 중앙서로 89 진천교성주공아파트</buildAddress>
<buildPlace>관리사무소</buildPlace>
<clerkTel>043-534-4621</clerkTel>
<manager>한형술</manager>
<managerTel>043-534-461</managerTel>
<mfg>(주)나눔테크</mfg>
<model>Heartkeeper</model>
<org>진천교성주공아파트</org>
<rnum>218</rnum>
<wgs84Lat>36.8514898922</wgs84Lat>
<wgs84Lon>127.4413894348</wgs84Lon>
<zipcode1>278</zipcode1>
<zipcode2>39</zipcode2>
</item>
<item>
<buildAddress>경상남도 창원시 의창구 죽전로74번길 49</buildAddress>
<buildPlace>2층메인사무실 왼쪽 벽면</buildPlace>
<clerkTel>02-860-9850</clerkTel>
<manager>이장섭</manager>
<managerTel>02-860-9850</managerTel>
<mfg>philips</mfg>
<model>HEARTSTART FRx</model>
<org>티유브이라인란드코리아</org>
<rnum>219</rnum>
<wgs84Lat>35.2446421885</wgs84Lat>
<wgs84Lon>128.6274576077</wgs84Lon>
<zipcode1>513</zipcode1>
<zipcode2>90</zipcode2>
</item>
<item>
<buildAddress>울산광역시 남구 삼산중로 110 평창2차현대아파트</buildAddress>
<buildPlace>관리동 1층 출입문 입구</buildPlace>
<clerkTel>052-268-2474</clerkTel>
<manager>관리소장</manager>
<managerTel>052-268-2474</managerTel>
<mfg>(주)라디안</mfg>
<model>Heart Guardian</model>
<org>평창2차현대아파트</org>
<rnum>220</rnum>
<wgs84Lat>35.5434254996</wgs84Lat>
<wgs84Lon>129.3363471320</wgs84Lon>
<zipcode1>447</zipcode1>
<zipcode2>05</zipcode2>
</item>
<item>
<buildAddress>대전광역시 유성구 반석동로 82 반석마을8단지아파트 관리사무소</buildAddress>
<buildPlace>복지관 2층 관리사무소 앞</buildPlace>
<clerkTel>042-824-3516</clerkTel>
<manager>관리과장</manager>
<managerTel>042-824-3516</managerTel>
<mfg>(주)나눔테크</mfg>
<model>NT-381</model>
<org>반석마을8단지 아파트 관리사무소</org>
<rnum>221</rnum>
<wgs84Lat>36.3954040408</wgs84Lat>
<wgs84Lon>127.3114514298</wgs84Lon>
<zipcode1>340</zipcode1>
<zipcode2>67</zipcode2>
</item>
<item>
<buildAddress>충청남도 논산시 논산대로348번길 7</buildAddress>
<buildPlace>관리사무소 출입구</buildPlace>
<clerkTel>041-735-0033</clerkTel>
<manager>최철용</manager>
<managerTel>010-***-****</managerTel>
<mfg>(주)나눔테크</mfg>
<model>NT-381</model>
<org>논산취암주공2단지</org>
<rnum>222</rnum>
<wgs84Lat>36.1942873479</wgs84Lat>
<wgs84Lon>127.1003624285</wgs84Lon>
<zipcode1>329</zipcode1>
<zipcode2>84</zipcode2>
</item>
<item>
<buildAddress>전라북도 전주시 완산구 삼천천변1길 9 삼천주공6단지아파트 관리사무소</buildAddress>
<buildPlace>관리사무소 로비</buildPlace>
<clerkTel>063-228-3584</clerkTel>
<manager>이정윤</manager>
<managerTel>010-***-****</managerTel>
<mfg>(주)메디아나</mfg>
<model>A15M-G4</model>
<org>전주삼천6단지아파트</org>
<rnum>223</rnum>
<wgs84Lat>35.7953625443</wgs84Lat>
<wgs84Lon>127.1114251995</wgs84Lon>
<zipcode1>550</zipcode1>
<zipcode2>86</zipcode2>
</item>
<item>
<buildAddress>경상남도 양산시 양산대로 849 양산시 종합운동장</buildAddress>
<buildPlace>실내체육관</buildPlace>
<clerkTel>055-379-8550</clerkTel>
<manager>담당자</manager>
<managerTel>055-379-8530</managerTel>
<mfg>나눔테크</mfg>
<model>mp-381</model>
<org>양산문화예술회관</org>
<rnum>224</rnum>
<wgs84Lat>35.3485607445</wgs84Lat>
<wgs84Lon>129.0354973856</wgs84Lon>
<zipcode1>506</zipcode1>
<zipcode2>19</zipcode2>
</item>
<item>
<buildAddress>경기도 고양시 일산서구 현중로 10 (탄현동, 탄현마을16단지(풍림)아파트)</buildAddress>
<buildPlace>경비제4초소</buildPlace>
<clerkTel>031-816-2284</clerkTel>
<manager>박병옥</manager>
<managerTel>031-816-2284</managerTel>
<mfg>(주)라디안</mfg>
<model>저출력심장충격기 HR-501-B</model>
<org>탄현마을16단지(풍림)아파트</org>
<rnum>225</rnum>
<wgs84Lat>37.6924554552</wgs84Lat>
<wgs84Lon>126.7687919583</wgs84Lon>
<zipcode1>103</zipcode1>
<zipcode2>45</zipcode2>
</item>
<item>
<buildAddress>울산광역시 동구 바드래길 110 (전하동, 전하 대경 넥스빌)</buildAddress>
<buildPlace>관리사무소 내</buildPlace>
<clerkTel>052-252-9402</clerkTel>
<manager>차헌열</manager>
<managerTel>052-252-9402</managerTel>
<mfg>(주)라디안</mfg>
<model>HR-501B</model>
<org>대경넥스빌아파트</org>
<rnum>226</rnum>
<wgs84Lat>35.5171157508</wgs84Lat>
<wgs84Lon>129.4262473480</wgs84Lon>
<zipcode1>440</zipcode1>
<zipcode2>37</zipcode2>
</item>
<item>
<buildAddress>부산광역시 남구 오륙도로 85</buildAddress>
<buildPlace>아파트 관리사무소 내(출입구 옆)</buildPlace>
<clerkTel>051-611-4411</clerkTel>
<manager>허희룡</manager>
<managerTel>051-611-4411</managerTel>
<mfg>(주)나눔테크</mfg>
<model>NT-180</model>
<org>오륙도sk뷰아파트</org>
<rnum>227</rnum>
<wgs84Lat>35.1022192806</wgs84Lat>
<wgs84Lon>129.1167695571</wgs84Lon>
<zipcode1>485</zipcode1>
<zipcode2>94</zipcode2>
</item>
<item>
<buildAddress>충청남도 아산시 신정로 685 (방축동)</buildAddress>
<buildPlace>체육관 현관</buildPlace>
<clerkTel>041-537-3916</clerkTel>
<manager>나원규</manager>
<managerTel>041-537-3916</managerTel>
<mfg>씨유메디칼시스템</mfg>
<model>NFK200</model>
<org>아산실내체육관</org>
<rnum>228</rnum>
<wgs84Lat>36.7785092116</wgs84Lat>
<wgs84Lon>126.9846139524</wgs84Lon>
<zipcode1>315</zipcode1>
<zipcode2>63</zipcode2>
</item>
<item>
<buildAddress>충청남도 아산시 염치읍 현충사길 126</buildAddress>
<buildPlace>현충사관리소정문</buildPlace>
<clerkTel>041-539-4610</clerkTel>
<manager>한정호</manager>
<managerTel>041-539-4605</managerTel>
<mfg>(주)메디아나</mfg>
<model>Heart On A15</model>
<org>현충사관리소</org>
<rnum>229</rnum>
<wgs84Lat>36.8302139271</wgs84Lat>
<wgs84Lon>126.9340068063</wgs84Lon>
<zipcode1>314</zipcode1>
<zipcode2>51</zipcode2>
</item>
<item>
<buildAddress>경기도 의왕시 안양판교로 143 (포일동)</buildAddress>
<buildPlace>서울구치소 보안과 미결처우1팀 사무실</buildPlace>
<clerkTel>031-596-1574</clerkTel>
<manager>이병연</manager>
<managerTel>031-596-1574</managerTel>
<mfg>씨유메디칼시스템</mfg>
<model>저출력심장충격기 I-PAD CU-SPI Plus</model>
<org>서울구치소</org>
<rnum>230</rnum>
<wgs84Lat>37.3968036531</wgs84Lat>
<wgs84Lon>126.9916157513</wgs84Lon>
<zipcode1>160</zipcode1>
<zipcode2>01</zipcode2>
</item>
<item>
<buildAddress>충청북도 청주시 흥덕구 사운로 278</buildAddress>
<buildPlace>2층 관리사무소</buildPlace>
<clerkTel>043-276-8213</clerkTel>
<manager>전향식</manager>
<managerTel>043-276-8213</managerTel>
<mfg>(주)나눔테크</mfg>
<model>Heart Keeper</model>
<org>운천무지개삼일아파트</org>
<rnum>231</rnum>
<wgs84Lat>36.6523071432</wgs84Lat>
<wgs84Lon>127.4735235502</wgs84Lon>
<zipcode1>284</zipcode1>
<zipcode2>67</zipcode2>
</item>
<item>
<buildAddress>전라북도 남원시 산내면 와운길 10</buildAddress>
<buildPlace>뱀사골분소 1층 복도</buildPlace>
<clerkTel>063-630-8943</clerkTel>
<manager>김재용</manager>
<managerTel>010-***-****</managerTel>
<mfg>씨유메디칼</mfg>
<model>CU-SP1</model>
<org>국립공원관리공단지리산국립공원북부사무소</org>
<rnum>232</rnum>
<wgs84Lat>35.3717979334</wgs84Lat>
<wgs84Lon>127.5791369583</wgs84Lon>
<zipcode1>558</zipcode1>
<zipcode2>05</zipcode2>
</item>
<item>
<buildAddress>부산광역시 동래구 중앙대로 1324, 도시철도 1호선 동래역 (온천동)</buildAddress>
<buildPlace>동래지하철역 역무실</buildPlace>
<clerkTel>051-678-6125</clerkTel>
<manager>정준기</manager>
<managerTel>051-553-5402</managerTel>
<mfg>니혼코덴</mfg>
<model>니혼코덴 심장충격기</model>
<org>부산교통공사동래지하철</org>
<rnum>233</rnum>
<wgs84Lat>35.2056141696</wgs84Lat>
<wgs84Lon>129.0784798256</wgs84Lon>
<zipcode1>477</zipcode1>
<zipcode2>34</zipcode2>
</item>
<item>
<buildAddress>울산광역시 남구 두왕로106번길 28-23 선암서광아파트</buildAddress>
<buildPlace>3층 관리사무소 실내</buildPlace>
<clerkTel>052-257-3548</clerkTel>
<manager>박성욱</manager>
<managerTel>010-***-****</managerTel>
<mfg>(주)나눔테크</mfg>
<model>Heartsaver-A</model>
<org>선암서광아파트</org>
<rnum>234</rnum>
<wgs84Lat>35.5135281560</wgs84Lat>
<wgs84Lon>129.3126144987</wgs84Lon>
<zipcode1>447</zipcode1>
<zipcode2>74</zipcode2>
</item>
<item>
<buildAddress>서울특별시 동대문구 사가정로13길 67 전일중학교</buildAddress>
<buildPlace>본관1층 현관</buildPlace>
<clerkTel>2245-4126</clerkTel>
<manager>김경미</manager>
<managerTel>02-2245-4126</managerTel>
<mfg>(주)나눔테크</mfg>
<model>HeartPLus NT-180</model>
<org>전일중학교</org>
<rnum>235</rnum>
<wgs84Lat>37.5825016193</wgs84Lat>
<wgs84Lon>127.0583778192</wgs84Lon>
<zipcode1>025</zipcode1>
<zipcode2>06</zipcode2>
</item>
<item>
<buildAddress>울산광역시 남구 옥현로 34 옥현으뜸마을주공3단지아파트</buildAddress>
<buildPlace>관리동 1층 관리사무실 내</buildPlace>
<clerkTel>052-247-3450</clerkTel>
<manager>손영오</manager>
<managerTel>052-247-3450</managerTel>
<mfg>C-U medical system.inc</mfg>
<model>I-PAD NF1200</model>
<org>옥현으뜸마을주공3단지</org>
<rnum>236</rnum>
<wgs84Lat>35.5393621064</wgs84Lat>
<wgs84Lon>129.2587065557</wgs84Lon>
<zipcode1>446</zipcode1>
<zipcode2>15</zipcode2>
</item>
<item>
<buildAddress>경기도 남양주시 평내로 146</buildAddress>
<buildPlace>경비실(2002동쪽 정문방향) 내부</buildPlace>
<clerkTel>031-592-4064</clerkTel>
<manager>안정용</manager>
<managerTel>031-592-4064</managerTel>
<mfg>㈜라디안</mfg>
<model>Heart Guardian</model>
<org>평내중흥S클래스1단지아파트</org>
<rnum>237</rnum>
<wgs84Lat>37.6468398565</wgs84Lat>
<wgs84Lon>127.2411388400</wgs84Lon>
<zipcode1>122</zipcode1>
<zipcode2>21</zipcode2>
</item>
<item>
<buildAddress>경기도 광명시 디지털로 63 1205동 1층출입통로</buildAddress>
<buildPlace>아파트 내</buildPlace>
<clerkTel>02-2685-0127</clerkTel>
<manager>심규현</manager>
<managerTel>02-2685-0127</managerTel>
<mfg>(주)나눔테크</mfg>
<model>NT280</model>
<org>철산주공12단지아파트1201동</org>
<rnum>238</rnum>
<wgs84Lat>37.4746756807</wgs84Lat>
<wgs84Lon>126.8716097544</wgs84Lon>
<zipcode1>142</zipcode1>
<zipcode2>38</zipcode2>
</item>
<item>
<buildAddress>경기도 군포시 산본천로 33 관리동 관리사무소 입구</buildAddress>
<buildPlace>관리사무소 입구</buildPlace>
<clerkTel>395-4638</clerkTel>
<manager>김성용</manager>
<managerTel>010-***-****</managerTel>
<mfg>(주)나눔테크</mfg>
<model>HeartSaverNT-285</model>
<org>우륵아파트</org>
<rnum>239</rnum>
<wgs84Lat>37.3586376986</wgs84Lat>
<wgs84Lon>126.9245393586</wgs84Lon>
<zipcode1>158</zipcode1>
<zipcode2>25</zipcode2>
</item>
<item>
<buildAddress>경기도 광명시 디지털로 63 1207동 1층출입구통로</buildAddress>
<buildPlace>아파트 내</buildPlace>
<clerkTel>02-2685-0127</clerkTel>
<manager>심규현</manager>
<managerTel>02-2685-0127</managerTel>
<mfg>(주)나눔테크</mfg>
<model>NT280</model>
<org>철산주공12단지아파트1201동</org>
<rnum>240</rnum>
<wgs84Lat>37.4746756807</wgs84Lat>
<wgs84Lon>126.8716097544</wgs84Lon>
<zipcode1>142</zipcode1>
<zipcode2>38</zipcode2>
</item>
<item>
<buildAddress>경기도 안산시 상록구 구룡로 87</buildAddress>
<buildPlace>본관 1층 로비</buildPlace>
<clerkTel>031-500-1114</clerkTel>
<manager>최신주</manager>
<managerTel>031-500-1114</managerTel>
<mfg>필립스</mfg>
<model>Heat Start Frx</model>
<org>근로복지공단안산병원</org>
<rnum>241</rnum>
<wgs84Lat>37.3175335209</wgs84Lat>
<wgs84Lon>126.8745760697</wgs84Lon>
<zipcode1>153</zipcode1>
<zipcode2>24</zipcode2>
</item>
<item>
<buildAddress>경상남도 양산시 물금읍 물금로 41</buildAddress>
<buildPlace>정문경비실</buildPlace>
<manager>강정호</manager>
<managerTel>010-***-****</managerTel>
<mfg>(주)나눔테크</mfg>
<model>저출력심장충격기,Hear Keeper</model>
<org>양우내안애5리버파크아파트</org>
<rnum>242</rnum>
<wgs84Lat>35.3101718066</wgs84Lat>
<wgs84Lon>128.9893902758</wgs84Lon>
<zipcode1>506</zipcode1>
<zipcode2>56</zipcode2>
</item>
<item>
<buildAddress>인천광역시 남동구 장아산로 158 (서창동,임광그대가아파트)</buildAddress>
<buildPlace>임광그대가아파트 108동 지하 관리사무소</buildPlace>
<clerkTel>032-469-0021</clerkTel>
<manager>김태훈</manager>
<managerTel>032-469-0021</managerTel>
<mfg>(주)나눔테크</mfg>
<model>I-PAD NFK200</model>
<org>임광그대가아파트</org>
<rnum>243</rnum>
<wgs84Lat>37.4371533690</wgs84Lat>
<wgs84Lon>126.7484784561</wgs84Lon>
<zipcode1>216</zipcode1>
<zipcode2>05</zipcode2>
</item>
<item>
<buildAddress>경기도 부천시 석천로 293 (중동)</buildAddress>
<buildPlace>주경기장 내부</buildPlace>
<clerkTel>032-340-0779</clerkTel>
<manager>김기출</manager>
<managerTel>032-340-0700</managerTel>
<mfg>(주)나눔테크</mfg>
<model>HeartPro NT-280</model>
<org>부천실내체육관</org>
<rnum>244</rnum>
<wgs84Lat>37.5134242947</wgs84Lat>
<wgs84Lon>126.7631661977</wgs84Lon>
<zipcode1>145</zipcode1>
<zipcode2>09</zipcode2>
</item>
<item>
<buildAddress>광주광역시 서구 풍암순환로 14 중앙경비실</buildAddress>
<buildPlace>중앙경비실</buildPlace>
<clerkTel>062-681-1530</clerkTel>
<manager>관리사무소장</manager>
<managerTel>062-681-1530</managerTel>
<mfg>(주)나눔테크</mfg>
<model>Heart Plus NT-180</model>
<org>풍암호반아파트</org>
<rnum>245</rnum>
<wgs84Lat>35.1241586606</wgs84Lat>
<wgs84Lon>126.8750675926</wgs84Lon>
<zipcode1>620</zipcode1>
<zipcode2>56</zipcode2>
</item>
<item>
<buildAddress>경상북도 문경시 매봉1길 35 매봉2관리사무소</buildAddress>
<buildPlace>문경매봉2관리소 내</buildPlace>
<clerkTel>054-554-0548</clerkTel>
<manager>김영민</manager>
<managerTel>054-554-0548</managerTel>
<mfg>씨유메디컬시스템</mfg>
<model>CU-SP1</model>
<org>문경매봉2관리소</org>
<rnum>246</rnum>
<wgs84Lat>36.5886016382</wgs84Lat>
<wgs84Lon>128.182968806</wgs84Lon>
<zipcode1>369</zipcode1>
<zipcode2>77</zipcode2>
</item>
<item>
<buildAddress>경기도 안양시 동안구 시민대로159번길 62 (비산동,은하수벽산아파트)</buildAddress>
<buildPlace>정문경비실</buildPlace>
<clerkTel>031-381-0875</clerkTel>
<manager>김윤배</manager>
<managerTel>010-***-****</managerTel>
<mfg>나눔</mfg>
<model>Heart Saver-A</model>
<org>은하수벽산아파트</org>
<rnum>247</rnum>
<wgs84Lat>37.3921666485</wgs84Lat>
<wgs84Lon>126.9469399210</wgs84Lon>
<zipcode1>140</zipcode1>
<zipcode2>45</zipcode2>
</item>
<item>
<buildAddress>경기도 안양시 만안구 박달로 453</buildAddress>
<buildPlace>관리동 1층</buildPlace>
<clerkTel>031-464-0053</clerkTel>
<manager>이춘만관리과장</manager>
<managerTel>031-464-0053</managerTel>
<mfg>라디안</mfg>
<model>HR-501B</model>
<org>한라비발디아파트</org>
<rnum>248</rnum>
<wgs84Lat>37.4023132116</wgs84Lat>
<wgs84Lon>126.9014959494</wgs84Lon>
<zipcode1>139</zipcode1>
<zipcode2>79</zipcode2>
</item>
<item>
<buildAddress>경기도 남양주시 천마산로 65</buildAddress>
<buildPlace>정문(101동102동사이)</buildPlace>
<clerkTel>031-559-5876</clerkTel>
<manager>채성원</manager>
